1753533037464;N;$GNRMC,123037.000,A,5317.98317,N,00607.53751,W,0.21,215.63,260725,,*0F
1753533037467;N;!AIVDO,1,1,,B,B8<Qc=h00WpwF97WvCN6icj03P06,0*31
1753533037468;N;!AIVDO,1,1,,A,H8<Qc=h8h4<e<PDE00000000000,2*6D
1753533037469;N;!AIVDO,1,1,,B,H8<Qc=lT?>G100059F6q00102210,0*16
1753533038299;N;$GNRMC,123038.000,A,5317.98321,N,00607.53762,W,0.21,215.63,260725,,*05
1753533039292;N;$GNRMC,123039.000,A,5317.98326,N,00607.53769,W,0.13,215.63,260725,,*09
1753533039726;N;!AIVDM,1,1,,B,13m2gD8000OSqOtNOpbP09EB05Qp,0*6C
1753533040303;N;$GNRMC,123040.000,A,5317.98330,N,00607.53776,W,0.17,215.63,260725,,*0A
1753533041289;N;$GPGSA,A,3,01,03,04,06,09,11,17,19,28,31,,,1.1,0.6,1.0*3A
1753533041306;N;$BDGSA,A,3,05,06,09,11,14,16,21,28,33,39,42,43,1.1,0.6,1.0*2E
1753533041327;N;$GPGSV,4,1,15,01,16,133,47,03,42,080,48,04,68,109,45,06,57,295,43*73
1753533041343;N;$GPGSV,4,2,15,09,51,193,46,11,20,304,28,12,,,26,17,27,212,41*40
1753533041830;N;$GPGSV,4,3,15,19,40,238,41,25,,,27,28,07,021,31,31,20,046,43*41
1753533041834;N;$GPGSV,4,4,15,34,,,42,36,,,45,40,,,40*78
1753533041835;N;$BDGSV,4,1,16,05,08,109,42,06,25,047,39,09,28,062,43,11,27,169,45*6B
1753533041835;N;$BDGSV,4,2,16,14,75,225,43,16,25,045,41,21,22,061,45,26,,,37*5D
1753533041835;N;$BDGSV,4,3,16,28,47,292,43,33,47,235,41,34,05,162,47,36,,,32*5D
1753533041840;N;$BDGSV,4,4,16,39,20,032,38,42,73,072,46,43,45,194,46,45,11,052,39*6C
1753533041843;N;$GNRMC,123041.000,A,5317.98334,N,00607.53787,W,0.18,218.26,260725,,*02
1753533041844;N;!AIVDM,1,1,,B,H3fKcki851@u800000000000000,2*21
1753533042304;N;$GNRMC,123042.000,A,5317.98339,N,00607.53793,W,0.14,218.26,260725,,*05
1753533043336;N;$GNGGA,123043.000,5317.98344,N,00607.53798,W,1,23,0.6,3.9,M,55.8,M,,*51
1753533043355;N;$GNRMC,123043.000,A,5317.98344,N,00607.53798,W,0.15,218.26,260725,,*04
1753533043571;N;!AIVDM,1,1,,A,4>jQM4ivUu<NdOSq<RNOjSo00D0i,0*0E
1753533044413;N;$GNRMC,123044.000,A,5317.98348,N,00607.53801,W,0.10,218.26,260725,,*05
1753533045439;N;!AIVDM,1,1,,A,B3fQ41P0=OpvhD7Wuou7e045oP06,0*08
1753533045496;N;$GNRMC,123045.000,A,5317.98352,N,00607.53802,W,0.13,218.26,260725,,*0F
1753533046475;N;$ONWA,DEV,AIS,B+,KS20A-MK2,3.1,2.2.3-240925,550005559,1.2.0-20230722,*00
1753533046487;N;AutoSendDevIdMsg(): get_timer_second() = 120
1753533046580;N;$GPGSA,A,3,01,03,04,06,09,11,17,19,28,31,,,1.1,0.6,1.0*3A
1753533046598;N;$BDGSA,A,3,05,06,09,11,14,16,21,28,33,39,42,43,1.1,0.6,1.0*2E
1753533047025;N;$GPGSV,4,1,15,01,16,133,47,03,42,080,46,04,68,109,45,06,57,295,44*7A
1753533047025;N;$GPGSV,4,2,15,09,51,193,46,11,20,304,30,12,,,28,17,27,212,42*44
1753533047026;N;$GPGSV,4,3,15,19,40,238,42,25,,,25,28,07,021,30,31,20,046,42*40
1753533047027;N;$GPGSV,4,4,15,34,,,42,36,,,45,40,,,40*78
1753533047027;N;$BDGSV,4,1,16,05,08,109,41,06,25,047,37,09,28,062,42,11,27,169,48*6A
1753533047028;N;$BDGSV,4,2,16,14,75,225,43,16,25,045,39,21,22,061,37,26,,,36*56
1753533047028;N;$BDGSV,4,3,16,28,47,292,41,33,47,235,42,34,05,162,47,36,,,34*5A
1753533047029;N;$BDGSV,4,4,16,39,20,032,40,42,73,072,46,43,45,194,46,45,11,052,39*63
1753533047032;N;$GNRMC,123046.000,A,5317.98355,N,00607.53802,W,0.11,218.26,260725,,*09
1753533047667;N;$GNRMC,123047.000,A,5317.98361,N,00607.53794,W,0.11,218.26,260725,,*0F
1753533047679;N;!AIVDO,1,1,,A,B8<Qc=h00GpwF67WvCf8IeG03P06,0*00
1753533047693;N;!AIVDO,1,1,,B,H8<Qc=h8h4<e<PDE00000000000,2*6E
1753533047720;N;!AIVDO,1,1,,A,H8<Qc=lT?>G100059F6q00102210,0*15
1753533047723;N;!AIVDM,1,1,,B,D>jQM4hhLw6Dk4w6E6DO6DuLNfp,2*23
1753533048746;N;$GNRMC,123048.000,A,5317.98366,N,00607.53788,W,0.12,218.26,260725,,*09
1753533049829;N;$GNRMC,123049.000,A,5317.98374,N,00607.53774,W,0.15,218.26,260725,,*0F
1753533050821;N;!AIVDM,1,1,,B,402HVp1vUu<NjwT=qtNRUbG00<1r,0*0A
1753533050923;N;$GNRMC,123050.000,A,5317.98381,N,00607.53762,W,0.17,218.26,260725,,*08
1753533051138;N;!AIVDM,1,1,,A,13m2gD8000OSqOtNOpbP09E`0L0m,0*48
1753533051987;N;$GPGSA,A,3,01,03,04,06,09,11,17,19,28,31,,,1.1,0.6,1.0*3A
1753533052005;N;$BDGSA,A,3,05,06,09,11,14,16,21,28,33,39,42,43,1.1,0.6,1.0*2E
1753533052024;N;$GPGSV,4,1,15,01,16,133,46,03,42,080,46,04,68,109,45,06,58,295,44*74
1753533052046;N;$GPGSV,4,2,15,09,51,193,46,11,20,304,31,12,,,28,17,27,212,40*47
1753533052569;N;$GPGSV,4,3,15,19,40,238,42,25,,,25,28,07,021,28,31,20,046,42*49
1753533052570;N;$GPGSV,4,4,15,34,,,44,36,,,45,40,,,40*7E
1753533052571;N;$BDGSV,4,1,16,05,08,109,41,06,25,047,38,09,28,062,42,11,27,169,47*6A
1753533052571;N;$BDGSV,4,2,16,14,75,225,42,16,25,045,38,21,22,061,42,26,,,36*54
1753533052571;N;$BDGSV,4,3,16,28,47,292,41,33,47,235,43,34,05,162,47,36,,,36*59
1753533052572;N;$BDGSV,4,4,16,39,20,032,41,42,73,072,46,43,45,194,46,45,11,052,40*6C
1753533052575;N;$GNRMC,123051.000,A,5317.98388,N,00607.53749,W,0.20,218.26,260725,,*0D
1753533053080;N;$GNRMC,123052.000,A,5317.98398,N,00607.53732,W,0.25,218.26,260725,,*06
1753533054102;N;$GNGGA,123053.000,5317.98406,N,00607.53720,W,1,23,0.6,3.9,M,55.8,M,,*52
1753533054120;N;$GNRMC,123053.000,A,5317.98406,N,00607.53720,W,0.25,218.26,260725,,*04
1753533054324;N;!AIVDM,1,1,,B,4>jQM4ivUu<NnOSq<RNOjSo005Qp,0*0E
1753533055119;N;$GNRMC,123054.000,A,5317.98416,N,00607.53702,W,0.32,218.26,260725,,*04
1753533056088;N;$GNRMC,123055.000,A,5317.98424,N,00607.53690,W,0.27,218.26,260725,,*0A
1753533057091;N;$GPGSA,A,3,01,03,04,06,09,11,17,19,28,31,,,1.1,0.6,1.0*3A
1753533057107;N;$BDGSA,A,3,05,06,09,11,14,16,21,28,33,39,42,43,1.1,0.6,1.0*2E
1753533057124;N;$GPGSV,4,1,15,01,16,133,47,03,42,080,46,04,68,109,45,06,58,295,41*70
1753533057145;N;$GPGSV,4,2,15,09,51,193,46,11,20,304,31,12,,,27,17,27,212,41*49
1753533057633;N;$GPGSV,4,3,15,19,40,238,41,25,,,24,28,07,021,32,31,20,045,44*45
1753533057634;N;$GPGSV,4,4,15,34,,,44,36,,,45,40,,,40*7E
1753533057634;N;$BDGSV,4,1,16,05,08,109,41,06,25,047,38,09,28,062,42,11,26,169,47*6B
1753533057635;N;$BDGSV,4,2,16,14,75,225,43,16,25,045,41,21,22,061,44,26,,,39*52
1753533057635;N;$BDGSV,4,3,16,28,47,292,41,33,47,235,41,34,05,162,47,36,,,31*5C
1753533057636;N;$BDGSV,4,4,16,39,20,032,39,42,73,072,46,43,45,194,46,45,11,052,40*63
1753533057638;N;$GNRMC,123056.000,A,5317.98432,N,00607.53671,W,0.36,218.26,260725,,*01
1753533058126;N;$GNRMC,123057.000,A,5317.98440,N,00607.53658,W,0.24,218.26,260725,,*0D
1753533058138;N;!AIVDO,1,1,,B,B8<Qc=h00opwF<WWvD>8IeL03P06,0*15
1753533058150;N;!AIVDO,1,1,,A,H8<Qc=h8h4<e<PDE00000000000,2*6D
1753533058163;N;!AIVDO,1,1,,B,H8<Qc=lT?>G100059F6q00102210,0*16
1753533059105;N;$GNRMC,123058.000,A,5317.98448,N,00607.53638,W,0.38,218.26,260725,,*01
1753533060115;N;$GNRMC,123059.000,A,5317.98453,N,00607.53628,W,0.09,218.26,260725,,*09
1753533060117;N;stop_pwm
1753533060118;N;start_pwm
1753533061017;N;!AIVDM,1,1,,A,402HVp1vUu<O0wT=qtNRUbG00D1s,0*2B
1753533061108;N;$GNRMC,123100.000,A,5317.98465,N,00607.53608,W,0.41,218.26,260725,,*0F
1753533061230;N;!AIVDM,1,1,,B,13m2gD8000OSqOtNOpbP09D20<0m,0*68
1753533062111;N;$GPGSA,A,3,01,03,04,06,09,11,17,19,28,31,,,1.1,0.6,1.0*3A
1753533062127;N;$BDGSA,A,3,05,06,09,11,14,16,21,28,33,39,42,43,1.1,0.6,1.0*2E
1753533062144;N;$GPGSV,4,1,15,01,16,133,47,03,42,080,48,04,68,108,45,06,58,295,40*7E
1753533062165;N;$GPGSV,4,2,15,09,51,193,44,11,20,304,32,12,,,27,17,27,212,42*4B
1753533062653;N;$GPGSV,4,3,15,19,40,238,41,25,,,32,28,07,021,33,31,20,045,44*43
1753533062654;N;$GPGSV,4,4,15,34,,,44,36,,,45,40,,,40*7E
1753533062654;N;$BDGSV,4,1,16,05,08,109,41,06,25,047,39,09,28,062,43,11,26,169,46*6A
1753533062655;N;$BDGSV,4,2,16,14,75,225,43,16,25,045,42,21,22,061,44,26,,,39*51
1753533062655;N;$BDGSV,4,3,16,28,47,292,38,33,47,236,38,34,05,162,47,36,,,36*58
1753533062656;N;$BDGSV,4,4,16,39,20,032,43,42,73,072,46,43,45,194,45,45,11,052,42*6F
1753533062658;N;$GNRMC,123101.000,A,5317.98475,N,00607.53595,W,0.30,218.26,260725,,*0E
1753533063115;N;$GNRMC,123102.000,A,5317.98485,N,00607.53581,W,0.42,218.26,260725,,*02
1753533064108;N;$GNGGA,123103.000,5317.98491,N,00607.53572,W,1,23,0.6,4.0,M,55.8,M,,*53
1753533064126;N;$GNRMC,123103.000,A,5317.98491,N,00607.53572,W,0.18,218.26,260725,,*05
1753533064324;N;!AIVDM,1,1,,A,4>jQM4ivUu<O4OSq<RNOjSo00<0i,0*27
1753533065118;N;$GNRMC,123104.000,A,5317.98499,N,00607.53562,W,0.39,218.26,260725,,*08
1753533066110;N;$GNRMC,123105.000,A,5317.98506,N,00607.53552,W,0.37,218.26,260725,,*03
1753533067107;N;$GPGSA,A,3,01,03,04,06,09,11,17,19,28,31,,,1.1,0.6,1.0*3A
1753533067124;N;$BDGSA,A,3,05,06,09,11,14,16,21,28,33,39,42,43,1.1,0.6,1.0*2E
1753533067141;N;$GPGSV,4,1,15,01,16,133,48,03,42,080,47,04,68,108,45,06,58,295,40*7E
1753533067161;N;$GPGSV,4,2,15,09,51,193,44,11,21,304,33,12,,,26,17,27,212,41*49
1753533067649;N;$GPGSV,4,3,15,19,40,238,41,25,,,30,28,07,021,38,31,20,045,46*48
1753533067650;N;$GPGSV,4,4,15,34,,,43,36,,,45,40,,,40*79
1753533067650;N;$BDGSV,4,1,16,05,08,109,41,06,25,047,42,09,28,062,44,11,26,169,43*64
1753533067651;N;$BDGSV,4,2,16,14,75,225,42,16,25,045,44,21,22,061,46,26,,,38*55
1753533067651;N;$BDGSV,4,3,16,28,47,292,37,33,47,236,39,34,05,162,46,36,,,40*56
1753533067652;N;$BDGSV,4,4,16,39,20,032,44,42,73,072,46,43,45,194,43,45,11,052,41*6D
1753533067654;N;$GNRMC,123106.000,A,5317.98513,N,00607.53543,W,0.37,218.26,260725,,*04
1753533068107;N;$GNRMC,123107.000,A,5317.98517,N,00607.53537,W,0.14,218.26,260725,,*03
1753533068118;N;!AIVDO,1,1,,A,B8<Qc=h00opwFC7WvDf8Ie303P06,0*2E
1753533068130;N;!AIVDO,1,1,,B,H8<Qc=h8h4<e<PDE00000000000,2*6E
1753533068143;N;!AIVDO,1,1,,A,H8<Qc=lT?>G100059F6q00102210,0*15
1753533069110;N;$GNRMC,123108.000,A,5317.98520,N,00607.53531,W,0.12,218.26,260725,,*08
1753533070101;N;$GNRMC,123109.000,A,5317.98524,N,00607.53523,W,0.30,218.26,260725,,*0E
1753533070751;N;!AIVDM,1,1,,A,13m2gD8000OSqOtNOpbP09DF0<0m,0*1F
1753533071017;N;!AIVDM,1,1,,B,402HVp1vUu<O:wT=qtNRUbG00L1t,0*2D
1753533071104;N;$GNRMC,123110.000,A,5317.98526,N,00607.53519,W,0.12,218.26,260725,,*0D
1753533072098;N;$GPGSA,A,3,01,03,04,06,09,11,17,19,28,31,,,1.1,0.6,1.0*3A
1753533072115;N;$BDGSA,A,3,05,06,09,11,14,16,21,28,33,39,42,43,1.1,0.6,1.0*2E
1753533072132;N;$GPGSV,4,1,15,01,16,133,48,03,41,080,46,04,68,108,45,06,58,295,38*73
1753533072152;N;$GPGSV,4,2,15,09,51,193,44,11,21,304,32,12,,,30,17,27,212,40*4E
1753533072641;N;$GPGSV,4,3,15,19,40,238,41,25,,,32,28,07,021,41,31,20,045,48*4A
1753533072642;N;$GPGSV,4,4,15,34,,,40,36,,,45,40,,,40*7A
1753533072642;N;$BDGSV,4,1,16,05,08,109,43,06,25,047,43,09,28,062,43,11,26,169,42*61
1753533072643;N;$BDGSV,4,2,16,14,75,225,41,16,25,045,44,21,22,061,45,26,,,39*54
1753533072643;N;$BDGSV,4,3,16,28,47,292,39,33,47,236,41,34,05,162,44,36,,,42*57
1753533072644;N;$BDGSV,4,4,16,39,20,032,45,42,73,072,46,43,45,194,43,45,11,052,41*6C
1753533072646;N;$GNRMC,123111.000,A,5317.98530,N,00607.53519,W,0.18,218.26,260725,,*01
1753533073108;N;$GNRMC,123112.000,A,5317.98528,N,00607.53523,W,0.15,218.58,260725,,*06
1753533074107;N;$GNGGA,123113.000,5317.98526,N,00607.53526,W,1,23,0.6,3.9,M,55.8,M,,*50
1753533074125;N;$GNRMC,123113.000,A,5317.98526,N,00607.53526,W,0.11,218.31,260725,,*07
1753533075107;N;$GNRMC,123114.000,A,5317.98528,N,00607.53529,W,0.12,218.31,260725,,*02
1753533075288;N;!AIVDM,1,1,,A,B3fK2E00=7pvhSWWvqONcwW5oP06,0*73
1753533076103;N;$GNRMC,123115.000,A,5317.98522,N,00607.53537,W,0.02,213.20,260725,,*0C
1753533077098;N;$GPGSA,A,3,01,03,04,06,09,11,17,19,28,31,,,1.1,0.6,1.0*3A
1753533077115;N;$BDGSA,A,3,05,06,09,11,14,16,21,28,33,39,42,43,1.1,0.6,1.0*2E
1753533077132;N;$GPGSV,4,1,15,01,16,133,48,03,41,080,48,04,68,108,44,06,58,295,37*73
1753533077152;N;$GPGSV,4,2,15,09,51,193,42,11,21,304,28,12,,,31,17,27,212,39*4C
1753533077641;N;$GPGSV,4,3,15,19,40,238,41,25,,,35,28,07,021,39,31,20,045,48*42
1753533077642;N;$GPGSV,4,4,15,34,,,40,36,,,45,40,,,40*7A
1753533077642;N;$BDGSV,4,1,16,05,08,109,43,06,25,047,42,09,28,062,43,11,26,169,41*63
1753533077642;N;$BDGSV,4,2,16,14,75,225,41,16,25,045,41,21,22,061,46,26,,,40*5C
1753533077643;N;$BDGSV,4,3,16,28,47,292,40,33,47,236,38,34,05,162,43,36,,,41*53
1753533077644;N;$BDGSV,4,4,16,39,20,032,46,42,73,072,46,43,45,194,39,45,11,052,39*6D
1753533077646;N;$GNRMC,123116.000,A,5317.98515,N,00607.53540,W,0.03,213.18,260725,,*01
1753533078105;N;$GNRMC,123117.000,A,5317.98505,N,00607.53549,W,0.12,212.54,260725,,*01
1753533078117;N;!AIVDO,1,1,,A,B8<Qc=h007pwFC7WvDf5=b`03P06,0*5B
1753533078129;N;!AIVDO,1,1,,B,H8<Qc=h8h4<e<PDE00000000000,2*6E
1753533078141;N;!AIVDO,1,1,,A,H8<Qc=lT?>G100059F6q00102210,0*15
1753533079112;N;$GNRMC,123118.000,A,5317.98503,N,00607.53554,W,0.11,212.54,260725,,*07
1753533080128;N;$GNRMC,123119.000,A,5317.98495,N,00607.53567,W,0.19,212.63,260725,,*04
1753533080751;N;!AIVDM,1,1,,B,13m2gD8000OSqP@NOpbP09Db05Qt,0*62
1753533081123;N;$GNRMC,123120.000,A,5317.98489,N,00607.53578,W,0.20,215.39,260725,,*0F
1753533082121;N;$GPGSA,A,3,01,03,04,06,09,11,17,19,28,31,,,1.1,0.6,1.0*3A
1753533082139;N;$BDGSA,A,3,05,06,09,11,14,16,21,28,33,39,42,43,1.1,0.6,1.0*2E
1753533082155;N;$GPGSV,4,1,15,01,15,133,47,03,41,080,48,04,68,108,44,06,58,295,39*71
1753533082176;N;$GPGSV,4,2,15,09,51,193,41,11,21,304,35,12,,,28,17,27,212,40*45
1753533082665;N;$GPGSV,4,3,15,19,40,238,40,25,,,31,28,07,021,41,31,20,045,47*47
1753533082666;N;$GPGSV,4,4,15,34,,,40,36,,,45,40,,,39*74
1753533082667;N;$BDGSV,5,1,17,05,08,109,43,06,25,047,42,09,29,062,39,11,26,169,41*6F
1753533082667;N;$BDGSV,5,2,17,14,75,225,41,16,25,045,41,21,22,061,46,26,,,40*5C
1753533082667;N;$BDGSV,5,3,17,27,,,33,28,47,292,38,33,47,236,37,34,05,162,44*51
1753533082667;N;$BDGSV,5,4,17,36,,,42,39,20,032,45,42,73,072,46,43,45,194,42*5D
1753533082668;N;$BDGSV,5,5,17,45,11,052,44*58
1753533082670;N;$GNRMC,123121.000,A,5317.98480,N,00607.53596,W,0.27,215.34,260725,,*0D
1753533082805;N;!AIVDM,1,1,,B,B39Pt9000OpvN37WuMu=?wc5oP06,0*43
1753533083122;N;$GNRMC,123122.000,A,5317.98475,N,00607.53610,W,0.25,217.95,260725,,*02
1753533084135;N;$GNGGA,123123.000,5317.98472,N,00607.53629,W,1,23,0.6,3.9,M,55.8,M,,*5F
1753533084154;N;$GNRMC,123123.000,A,5317.98472,N,00607.53629,W,0.28,222.36,260725,,*0C
1753533084324;N;!AIVDM,1,1,,A,4>jQM4ivUu<OHOSq<RNOjSo00D0i,0*23
1753533085122;N;$GNRMC,123124.000,A,5317.98471,N,00607.53643,W,0.20,224.47,260725,,*0C
1753533086135;N;$GNRMC,123125.000,A,5317.98466,N,00607.53660,W,0.32,225.87,260725,,*04
1753533087115;N;$GPGSA,A,3,01,03,04,06,09,11,17,19,28,31,,,1.1,0.6,1.0*3A
1753533087132;N;$BDGSA,A,3,05,06,09,11,14,16,21,28,33,39,42,43,1.1,0.6,1.0*2E
1753533087148;N;$GPGSV,4,1,15,01,15,133,47,03,41,080,47,04,68,108,44,06,58,295,40*70
1753533087173;N;$GPGSV,4,2,15,09,51,193,43,11,21,304,32,12,,,30,17,27,212,39*47
1753533087652;N;$GPGSV,4,3,15,19,40,237,39,25,,,31,28,07,021,40,31,20,045,47*47
1753533087654;N;$GPGSV,4,4,15,34,,,40,36,,,45,40,,,39*74
1753533087654;N;$BDGSV,5,1,17,05,08,109,43,06,25,047,42,09,29,062,45,11,26,169,41*64
1753533087654;N;$BDGSV,5,2,17,14,75,225,41,16,25,045,44,21,22,061,44,26,,,39*55
1753533087654;N;$BDGSV,5,3,17,27,,,32,28,47,292,37,33,47,236,42,34,05,162,44*5D
1753533087654;N;$BDGSV,5,4,17,36,,,41,39,20,032,46,42,73,072,46,43,45,194,44*5B
1753533087655;N;$BDGSV,5,5,17,45,11,052,44*58
1753533087662;N;$GNRMC,123126.000,A,5317.98456,N,00607.53680,W,0.36,224.80,260725,,*08
1753533088126;N;$GNRMC,123127.000,A,5317.98455,N,00607.53691,W,0.22,227.05,260725,,*01
1753533088137;N;!AIVDO,1,1,,B,B8<Qc=h00opwF<7WvDB<Qh=03P06,0*69
1753533088150;N;!AIVDO,1,1,,A,H8<Qc=h8h4<e<PDE00000000000,2*6D
1753533088162;N;!AIVDO,1,1,,B,H8<Qc=lT?>G100059F6q00102210,0*16
1753533089121;N;$GNRMC,123128.000,A,5317.98457,N,00607.53704,W,0.25,229.65,260725,,*0E
1753533089394;N;!AIVDM,1,1,,A,B3fJoL00?gpvh;7WwVlk3wfUoP06,0*5D
1753533090139;N;$GNRMC,123129.000,A,5317.98450,N,00607.53721,W,0.32,227.56,260725,,*07
1753533091017;N;!AIVDM,1,1,,B,402HVp1vUu<ONwT=qtNRUbG00<25,0*6B
1753533091128;N;$GNRMC,123130.000,A,5317.98438,N,00607.53735,W,0.35,226.71,260725,,*07
1753533091791;N;!AIVDM,1,1,,A,13m2gD8000OSqP@NOpbP09E005Qt,0*32
1753533092116;N;$GPGSA,A,3,01,03,04,06,09,11,17,19,28,31,,,1.1,0.6,1.0*3A
1753533092133;N;$BDGSA,A,3,05,06,09,11,14,16,21,28,33,39,42,43,1.1,0.6,1.0*2E
1753533092150;N;$GPGSV,4,1,15,01,15,133,46,03,41,080,47,04,68,108,45,06,58,295,39*7E
1753533092171;N;$GPGSV,4,2,15,09,51,193,43,11,21,304,36,12,,,26,17,27,212,40*4A
1753533092656;N;$GPGSV,4,3,15,19,40,237,41,25,,,29,28,07,021,38,31,20,045,47*4E
1753533092658;N;$GPGSV,4,4,15,34,,,39,36,,,45,40,,,40*74
1753533092658;N;$BDGSV,5,1,17,05,08,109,42,06,25,047,41,09,29,062,43,11,26,169,42*63
1753533092658;N;$BDGSV,5,2,17,14,75,225,40,16,25,045,45,21,22,061,47,26,,,40*58
1753533092659;N;$BDGSV,5,3,17,27,,,27,28,47,292,38,33,47,236,40,34,,,45*65
1753533092659;N;$BDGSV,5,4,17,36,,,41,39,20,032,43,42,73,072,46,43,45,194,44*5E
1753533092660;N;$BDGSV,5,5,17,45,11,052,43*5F
1753533092662;N;$GNRMC,123131.000,A,5317.98435,N,00607.53747,W,0.16,228.38,260725,,*0C
1753533093118;N;$GNRMC,123132.000,A,5317.98438,N,00607.53754,W,0.19,228.38,260725,,*0F
1753533094115;N;$GNGGA,123133.000,5317.98439,N,00607.53759,W,1,23,0.6,3.8,M,55.8,M,,*56
1753533094132;N;$GNRMC,123133.000,A,5317.98439,N,00607.53759,W,0.05,227.84,260725,,*07
1753533094324;N;!AIVDM,1,1,,B,4>jQM4ivUu<OROSq<RNOjSo008D5,0*6E
1753533095119;N;$GNRMC,123134.000,A,5317.98430,N,00607.53771,W,0.28,226.68,260725,,*0F
1753533096116;N;$GNRMC,123135.000,A,5317.98420,N,00607.53775,W,0.26,223.17,260725,,*08
1753533097108;N;$GPGSA,A,3,01,03,04,06,09,11,17,19,28,31,,,1.1,0.6,1.0*3A
1753533097125;N;$BDGSA,A,3,05,06,09,11,14,16,21,28,33,39,42,43,1.1,0.6,1.0*2E
1753533097141;N;$GPGSV,4,1,15,01,15,133,46,03,41,080,47,04,68,108,44,06,58,295,40*71
1753533097162;N;$GPGSV,4,2,15,09,51,193,43,11,21,304,35,12,,,25,17,27,212,40*4A
1753533097649;N;$GPGSV,4,3,15,19,40,237,41,25,,,28,28,07,021,37,31,20,045,47*40
1753533097650;N;$GPGSV,4,4,15,34,,,39,36,,,44,40,,,40*75
1753533097650;N;$BDGSV,5,1,17,05,08,109,39,06,25,047,42,09,29,062,46,11,26,169,40*6B
1753533097650;N;$BDGSV,5,2,17,14,76,225,40,16,25,045,45,21,22,061,48,26,,,39*5A
1753533097650;N;$BDGSV,5,3,17,27,,,28,28,47,292,37,33,47,236,41,34,,,46*67
1753533097651;N;$BDGSV,5,4,17,36,,,39,39,20,032,42,42,73,072,46,43,45,194,43*57
1753533097652;N;$BDGSV,5,5,17,45,11,052,43*5F
1753533097654;N;$GNRMC,123136.000,A,5317.98413,N,00607.53778,W,0.23,222.91,260725,,*0C
1753533098125;N;$GNRMC,123137.000,A,5317.98409,N,00607.53777,W,0.14,222.91,260725,,*0D
1753533098137;N;!AIVDO,1,1,,A,B8<Qc=h00WpwF7WWvD6;EgB03P06,0*2E
1753533098149;N;!AIVDO,1,1,,B,H8<Qc=h8h4<e<PDE00000000000,2*6E
1753533098161;N;!AIVDO,1,1,,A,H8<Qc=lT?>G100059F6q00102210,0*15
1753533099117;N;$GNRMC,123138.000,A,5317.98402,N,00607.53779,W,0.24,218.51,260725,,*01
1753533099425;N;!AIVDM,1,1,,B,H3fKcklUC=D4cNL591kiko0P621t,0*37
1753533100117;N;$GNRMC,123139.000,A,5317.98397,N,00607.53779,W,0.13,217.21,260725,,*07
1753533100537;N;!AIVDM,1,1,,B,13m2gD8000OSqP@NOpbP09EB00T2,0*05
1753533101017;N;!AIVDM,1,1,,A,402HVp1vUu<O`wT=qtNRUbG000S:,0*24
1753533101117;N;$GNRMC,123140.000,A,5317.98392,N,00607.53782,W,0.15,216.60,260725,,*0A
1753533102108;N;$GPGSA,A,3,01,03,04,06,09,11,17,19,28,31,,,1.1,0.6,1.0*3A
1753533102124;N;$BDGSA,A,3,05,06,09,11,14,16,21,28,33,39,42,43,1.1,0.6,1.0*2E
1753533102141;N;$GPGSV,4,1,15,01,15,133,46,03,41,080,47,04,68,108,45,06,58,295,39*7E
1753533102162;N;$GPGSV,4,2,15,09,52,193,43,11,21,304,31,12,,,26,17,27,212,41*4F
1753533102648;N;$GPGSV,4,3,15,19,40,237,42,25,,,27,28,07,021,39,31,20,045,45*40
1753533102650;N;$GPGSV,4,4,15,34,,,40,36,,,44,40,,,40*7B
1753533102650;N;$BDGSV,5,1,17,05,08,109,39,06,25,047,43,09,29,062,45,11,26,169,42*6B
1753533102650;N;$BDGSV,5,2,17,14,76,225,41,16,25,045,46,21,22,061,48,26,,,40*56
1753533102651;N;$BDGSV,5,3,17,27,,,33,28,47,292,38,33,47,236,41,34,,,45*61
1753533102651;N;$BDGSV,5,4,17,36,,,37,39,20,032,41,42,73,072,46,43,45,194,45*5C
1753533102654;N;$BDGSV,5,5,17,45,11,052,43*5F
1753533102657;N;$GNRMC,123141.000,A,5317.98387,N,00607.53780,W,0.21,213.62,260725,,*0D
1753533103115;N;$GNRMC,123142.000,A,5317.98380,N,00607.53775,W,0.19,211.65,260725,,*0D
1753533104108;N;$GNGGA,123143.000,5317.98374,N,00607.53772,W,1,23,0.6,3.9,M,55.8,M,,*57
1753533104126;N;$GNRMC,123143.000,A,5317.98374,N,00607.53772,W,0.19,209.65,260725,,*09
1753533105122;N;$GNRMC,123144.000,A,5317.98368,N,00607.53772,W,0.20,208.99,260725,,*0B
1753533105206;N;!AIVDM,1,1,,B,B3fK2E006WpvgTWWw;G>?wn5oP06,0*45
1753533106163;N;$GNRMC,123145.000,A,5317.98360,N,00607.53774,W,0.22,205.80,260725,,*03
1753533107006;N;$ONWA,DEV,AIS,B+,KS20A-MK2,3.1,2.2.3-240925,550005559,1.2.0-20230722,*00
1753533107017;N;AutoSendDevIdMsg(): get_timer_second() = 180
1753533107119;N;$GPGSA,A,3,01,03,04,06,09,11,17,19,28,31,,,1.1,0.6,1.0*3A
1753533107136;N;$BDGSA,A,3,05,06,09,11,14,16,21,28,33,39,42,43,1.1,0.6,1.0*2E
1753533107513;N;$GPGSV,4,1,15,01,15,133,46,03,41,080,46,04,68,108,45,06,58,295,39*7F
1753533107513;N;$GPGSV,4,2,15,09,52,193,44,11,21,304,34,12,,,26,17,27,212,41*4D
1753533107513;N;$GPGSV,4,3,15,19,40,237,41,25,,,28,28,07,021,37,31,20,045,45*42
1753533107514;N;$GPGSV,4,4,15,34,,,40,36,,,44,40,,,41*7A
1753533107515;N;$BDGSV,5,1,17,05,08,109,41,06,25,047,42,09,29,062,44,11,26,169,43*65
1753533107515;N;$BDGSV,5,2,17,14,76,225,41,16,25,045,44,21,22,061,47,26,,,39*55
1753533107515;N;$BDGSV,5,3,17,27,,,33,28,47,292,40,33,47,236,41,34,,,45*6E
1753533107515;N;$BDGSV,5,4,17,36,,,39,39,20,032,41,42,73,072,46,43,45,194,45*52
1753533107517;N;$BDGSV,5,5,17,45,11,052,44*58
1753533107518;N;$GNRMC,123146.000,A,5317.98356,N,00607.53775,W,0.08,205.02,260725,,*06
1753533108107;N;!AIVDM,1,1,,B,D>jQM4hhLw6Dk4w6E6DO6DuLNfp,2*23
1753533108152;N;$GNRMC,123147.000,A,5317.98349,N,00607.53776,W,0.20,202.39,260725,,*0F
1753533108164;N;!AIVDO,1,1,,A,B8<Qc=h007pwF7WWvCf09Vo03P06,0*72
1753533108177;N;!AIVDO,1,1,,B,H8<Qc=h8h4<e<PDE00000000000,2*6E
1753533108621;N;!AIVDO,1,1,,A,H8<Qc=lT?>G100059F6q00102210,0*15
1753533109155;N;$GNRMC,123148.000,A,5317.98345,N,00607.53778,W,0.11,201.21,260725,,*0A
1753533110162;N;$GNRMC,123149.000,A,5317.98339,N,00607.53781,W,0.21,200.59,260725,,*0B
1753533111017;N;!AIVDM,1,1,,B,402HVp1vUu<OjwT=qtNRUbG008Mo,0*6E
1753533111140;N;$GNRMC,123150.000,A,5317.98337,N,00607.53781,W,0.03,200.59,260725,,*0D
1753533111310;N;!AIVDM,1,1,,A,13m2gD8000OSqP@NOpbP09E`0HN2,0*46
1753533112112;N;$GPGSA,A,3,01,03,04,06,09,11,17,19,28,31,,,1.1,0.6,1.0*3A
1753533112129;N;$BDGSA,A,3,05,06,09,11,14,16,21,28,33,39,42,43,1.1,0.6,1.0*2E
1753533112145;N;$GPGSV,4,1,15,01,15,133,45,03,41,080,47,04,68,107,45,06,58,295,42*7E
1753533112166;N;$GPGSV,4,2,15,09,52,193,44,11,21,304,33,12,,,27,17,27,212,40*4A
1753533112652;N;$GPGSV,4,3,15,19,40,237,42,25,,,28,28,07,021,38,31,20,045,45*4E
1753533112654;N;$GPGSV,4,4,15,34,,,42,36,,,44,40,,,41*78
1753533112654;N;$BDGSV,5,1,17,05,08,109,41,06,25,047,42,09,29,062,43,11,26,169,42*63
1753533112654;N;$BDGSV,5,2,17,14,76,225,42,16,25,045,45,21,22,061,50,26,,,39*51
1753533112654;N;$BDGSV,5,3,17,27,,,28,28,47,292,43,33,47,236,39,34,,,46*6B
1753533112654;N;$BDGSV,5,4,17,36,,,38,39,20,032,39,42,73,072,46,43,45,194,45*5C
1753533112655;N;$BDGSV,5,5,17,45,11,052,43*5F
1753533112657;N;$GNRMC,123151.000,A,5317.98335,N,00607.53779,W,0.11,199.50,260725,,*00
1753533112658;N;send staus
1753533113120;N;$GNRMC,123152.000,A,5317.98335,N,00607.53778,W,0.07,199.50,260725,,*05
1753533114117;N;$GNGGA,123153.000,5317.98336,N,00607.53778,W,1,23,0.6,3.9,M,55.8,M,,*5A
1753533114135;N;$GNRMC,123153.000,A,5317.98336,N,00607.53778,W,0.07,199.50,260725,,*07
1753533114324;N;!AIVDM,1,1,,B,4>jQM4ivUu<OnOSq<RNOjSo000S:,0*42
1753533115118;N;$GNRMC,123154.000,A,5317.98336,N,00607.53779,W,0.09,199.36,260725,,*0F
1753533116118;N;$GNRMC,123155.000,A,5317.98332,N,00607.53783,W,0.12,200.00,260725,,*03
1753533117114;N;$GPGSA,A,3,01,03,04,06,09,11,17,19,28,31,,,1.1,0.6,1.0*3A
1753533117130;N;$BDGSA,A,3,05,06,09,11,14,16,21,28,33,39,42,43,1.1,0.6,1.0*2E
1753533117147;N;$GPGSV,4,1,15,01,15,133,43,03,41,080,47,04,68,107,45,06,58,295,42*78
1753533117168;N;$GPGSV,4,2,15,09,52,193,44,11,21,304,31,12,,,27,17,27,212,39*46
1753533117652;N;$GPGSV,4,3,15,19,40,237,42,25,,,26,28,07,021,37,31,20,045,44*4E
1753533117654;N;$GPGSV,4,4,15,34,,,42,36,,,44,40,,,41*78
1753533117654;N;$BDGSV,5,1,17,05,08,109,39,06,25,047,39,09,29,062,43,11,26,169,45*67
1753533117654;N;$BDGSV,5,2,17,14,76,225,42,16,25,045,43,21,22,061,48,26,,,38*5F
1753533117654;N;$BDGSV,5,3,17,27,,,28,28,47,292,40,33,47,236,43,34,,,45*66
1753533117654;N;$BDGSV,5,4,17,36,,,37,39,20,032,37,42,73,072,45,43,45,194,45*5E
1753533117655;N;$BDGSV,5,5,17,45,11,052,45*59
1753533117657;N;$GNRMC,123156.000,A,5317.98329,N,00607.53782,W,0.10,199.00,260725,,*0A
1753533118116;N;$GNRMC,123157.000,A,5317.98330,N,00607.53779,W,0.08,199.00,260725,,*0E
1753533118128;N;!AIVDO,1,1,,A,B8<Qc=h00GpwF7WWvCQtISt03P06,0*1F
1753533118140;N;!AIVDO,1,1,,B,H8<Qc=h8h4<e<PDE00000000000,2*6E
1753533118152;N;!AIVDO,1,1,,A,H8<Qc=lT?>G100059F6q00102210,0*15
1753533119133;N;$GNRMC,123158.000,A,5317.98329,N,00607.53781,W,0.08,200.43,260725,,*0A
1753533120113;N;$GNRMC,123159.000,A,5317.98328,N,00607.53783,W,0.07,200.31,260725,,*02
1753533120115;N;stop_pwm
1753533120116;N;start_pwm
1753533121116;N;$GNRMC,123200.000,A,5317.98330,N,00607.53782,W,0.05,200.31,260725,,*07
1753533121230;N;!AIVDM,1,1,,B,13m2gD8000OSqP@NOpbP09D2080d,0*4E
1753533122123;N;$GPGSA,A,3,01,03,04,06,09,11,17,19,28,31,,,1.1,0.6,1.0*3A
1753533122140;N;$BDGSA,A,3,05,06,09,11,14,16,21,28,33,39,42,43,1.1,0.6,1.0*2E
1753533122157;N;$GPGSV,4,1,15,01,15,133,43,03,41,080,47,04,68,107,45,06,58,295,43*79
1753533122177;N;$GPGSV,4,2,15,09,52,193,44,11,21,304,29,12,,,28,17,27,212,42*4C
1753533122665;N;$GPGSV,4,3,15,19,40,237,41,25,,,30,28,07,021,31,31,20,045,44*4C
1753533122666;N;$GPGSV,4,4,15,34,,,42,36,,,44,40,,,41*78
1753533122666;N;$BDGSV,5,1,17,05,08,109,37,06,25,047,40,09,29,062,42,11,26,169,40*63
1753533122666;N;$BDGSV,5,2,17,14,76,225,42,16,25,045,42,21,22,061,47,26,,,39*50
1753533122666;N;$BDGSV,5,3,17,27,,,27,28,47,291,41,33,47,236,41,34,,,45*69
1753533122666;N;$BDGSV,5,4,17,36,,,34,39,20,032,39,42,73,072,45,43,45,194,47*51
1753533122667;N;$BDGSV,5,5,17,45,11,051,40*5F
1753533122669;N;$GNRMC,123201.000,A,5317.98335,N,00607.53779,W,0.03,200.31,260725,,*01
1753533122801;N;!AIVDM,1,1,,A,D>jQM4hm8w6Dmhw6D0,4*12
1753533123122;N;$GNRMC,123202.000,A,5317.98339,N,00607.53778,W,0.01,200.31,260725,,*0D
1753533124122;N;$GNGGA,123203.000,5317.98341,N,00607.53779,W,1,23,0.6,3.8,M,55.8,M,,*5C
1753533124140;N;$GNRMC,123203.000,A,5317.98341,N,00607.53779,W,0.00,200.73,260725,,*05
1753533124324;N;!AIVDM,1,1,,A,4>jQM4ivUu<P4OSq<RNOjSo0082P,0*07
1753533125121;N;$GNRMC,123204.000,A,5317.98347,N,00607.53776,W,0.05,200.73,260725,,*0E
1753533125261;N;!AIVDM,1,1,,A,B3fKDD@05?pvPV7WtuB3;wRUoP06,0*62
1753533126120;N;$GNRMC,123205.000,A,5317.98354,N,00607.53774,W,0.07,200.73,260725,,*0D
1753533127110;N;$GPGSA,A,3,01,03,04,06,09,11,17,19,28,31,,,1.1,0.6,1.0*3A
1753533127127;N;$BDGSA,A,3,05,06,09,11,14,16,21,28,33,39,42,43,1.1,0.6,1.0*2E
1753533127143;N;$GPGSV,4,1,15,01,15,133,43,03,41,080,46,04,68,107,45,06,58,295,42*79
1753533127164;N;$GPGSV,4,2,15,09,52,193,45,11,21,304,28,12,,,30,17,27,212,40*47
1753533127652;N;$GPGSV,4,3,15,19,40,237,41,25,,,24,28,07,021,33,31,20,045,44*4B
1753533127654;N;$GPGSV,4,4,15,34,,,43,36,,,44,40,,,41*79
1753533127654;N;$BDGSV,5,1,17,05,08,109,37,06,25,047,40,09,29,062,38,11,26,169,45*6B
1753533127654;N;$BDGSV,5,2,17,14,76,225,42,16,25,045,40,21,22,061,49,26,,,40*52
1753533127655;N;$BDGSV,5,3,17,27,,,26,28,47,291,42,33,47,236,42,34,,,44*69
1753533127655;N;$BDGSV,5,4,17,36,,,30,39,20,032,37,42,73,072,44,43,45,194,46*5B
1753533127656;N;$BDGSV,5,5,17,45,11,051,43*5C
1753533127658;N;$GNRMC,123206.000,A,5317.98360,N,00607.53772,W,0.10,200.73,260725,,*09
1753533128122;N;$GNRMC,123207.000,A,5317.98365,N,00607.53772,W,0.10,200.73,260725,,*0D
1753533128134;N;!AIVDO,1,1,,B,B8<Qc=h00GpwF7WWvCeuMT303P06,0*6D
1753533128146;N;!AIVDO,1,1,,A,H8<Qc=h8h4<e<PDE00000000000,2*6D
1753533128158;N;!AIVDO,1,1,,B,H8<Qc=lT?>G100059F6q00102210,0*16
1753533129122;N;$GNRMC,123208.000,A,5317.98373,N,00607.53770,W,0.14,200.73,260725,,*03
1753533130129;N;$GNRMC,123209.000,A,5317.98380,N,00607.53768,W,0.14,200.73,260725,,*07
1753533130751;N;!AIVDM,1,1,,A,13m2gD8000OSqP@NOpbP09DF086A,0*1A
1753533131117;N;$GNRMC,123210.000,A,5317.98385,N,00607.53766,W,0.15,200.73,260725,,*05
1753533132116;N;$GPGSA,A,3,01,03,04,06,09,11,17,19,28,31,,,1.1,0.6,1.0*3A
1753533132133;N;$BDGSA,A,3,05,06,09,11,14,16,21,28,33,39,42,43,1.1,0.6,1.0*2E
1753533132149;N;$GPGSV,4,1,15,01,15,133,44,03,41,080,47,04,68,107,45,06,58,295,42*7F
1753533132170;N;$GPGSV,4,2,15,09,52,193,45,11,21,304,23,12,,,31,17,27,212,41*4C
1753533132657;N;$GPGSV,4,3,15,19,40,237,41,25,,,26,28,07,021,34,31,20,045,43*49
1753533132658;N;$GPGSV,4,4,15,34,,,43,36,,,44,40,,,41*79
1753533132658;N;$BDGSV,5,1,17,05,08,109,37,06,25,047,41,09,29,062,41,11,26,169,45*64
1753533132658;N;$BDGSV,5,2,17,14,76,225,42,16,25,045,43,21,22,061,48,26,,,40*50
1753533132659;N;$BDGSV,5,3,17,27,,,24,28,47,291,41,33,47,236,41,34,,,42*6D
1753533132659;N;$BDGSV,5,4,17,36,,,32,39,20,032,37,42,73,071,44,43,45,194,45*59
1753533132660;N;$BDGSV,5,5,17,45,11,051,43*5C
1753533132663;N;$GNRMC,123211.000,A,5317.98390,N,00607.53766,W,0.15,200.73,260725,,*00
1753533133119;N;$GNRMC,123212.000,A,5317.98397,N,00607.53759,W,0.18,200.73,260725,,*05
1753533134132;N;$GNGGA,123213.000,5317.98404,N,00607.53755,W,1,23,0.6,3.7,M,55.8,M,,*5A
1753533134150;N;$GNRMC,123213.000,A,5317.98404,N,00607.53755,W,0.19,200.73,260725,,*04
1753533134323;N;!AIVDM,1,1,,B,4>jQM4ivUu<P>OSq<RNOjSo00L0i,0*41
1753533135118;N;$GNRMC,123214.000,A,5317.98408,N,00607.53756,W,0.09,200.73,260725,,*0D
1753533135463;N;$IIRMC,123214,A,5317.984,N,00607.537,W,00.0,200,260725,01,W,A*09
1753533135498;N;$IIVHW,,,292,M,,,,*3D
1753533135596;N;$IIGLL,5317.984,N,00607.537,W,123214,A,A*40
1753533135630;N;$IIHDG,292,,,01,W*08
1753533136107;N;!AIVDM,1,1,,B,B3fQ41P03OpvoJ7Wu`>qRBk5oP06,0*14
1753533136123;N;$GNRMC,123215.000,A,5317.98413,N,00607.53754,W,0.17,200.73,260725,,*0B
1753533136459;N;!AIVDM,1,1,,A,B3fK2E004Wpvf3WWwDs8kw`5oP06,0*35
1753533136464;N;$IIRMC,123214,A,5317.984,N,00607.537,W,00.0,200,260725,01,W,A*09
1753533136501;N;$IIVHW,,,304,M,00.0,N,,*63
1753533136568;N;$IIVLW,01608,N,000.0,N*5C
1753533136820;N;$IIVWR,001,L,02.3,N,,,,*7F
1753533136822;N;$IIGLL,5317.984,N,00607.537,W,123214,A,A*40
1753533136823;N;$IIHDG,304,,,01,W*06
1753533136826;N;$IIMTW,+00.0,C*38
1753533136882;N;$IIMWV,359,R,02.3,N,A*1D
1753533137112;N;$GPGSA,A,3,01,03,04,06,09,11,17,19,28,31,,,1.1,0.6,1.0*3A
1753533137129;N;$BDGSA,A,3,05,06,09,11,14,16,21,28,33,39,42,43,1.1,0.6,1.0*2E
1753533137145;N;$GPGSV,4,1,15,01,15,133,44,03,41,080,47,04,68,107,46,06,58,295,42*7C
1753533137220;N;$GPGSV,4,2,15,09,52,193,45,11,21,304,31,12,,,32,17,27,212,41*4C
1753533137221;N;$GPGSV,4,3,15,19,40,237,40,25,,,26,28,07,021,34,31,20,045,42*49
1753533137222;N;$GPGSV,4,4,15,34,,,43,36,,,44,40,,,41*79
1753533137222;N;$BDGSV,5,1,17,05,08,109,37,06,25,047,41,09,29,062,42,11,26,169,45*67
1753533137653;N;$BDGSV,5,2,17,14,76,225,42,16,25,045,44,21,21,061,49,26,,,40*55
1753533137653;N;$BDGSV,5,3,17,27,,,28,28,47,291,42,33,48,236,39,34,,,43*63
1753533137653;N;$BDGSV,5,4,17,36,,,36,39,20,032,38,42,73,071,46,43,44,194,45*51
1753533137654;N;$BDGSV,5,5,17,45,11,051,45*5A
1753533137656;N;$GNRMC,123216.000,A,5317.98420,N,00607.53750,W,0.20,200.73,260725,,*08
1753533137698;N;$IIMWV,359,T,02.3,N,A*1B
1753533137700;N;$IIRMC,123214,A,5317.984,N,00607.537,W,00.0,200,260725,01,W,A*09
1753533137702;N;$IIVHW,,,305,M,01.4,N,,*67
1753533137703;N;$IIVLW,01608,N,000.0,N*5C
1753533137706;N;$IIVWR,002,R,07.8,N,,,,*6C
1753533137765;N;$IIGLL,5317.984,N,00607.537,W,123214,A,A*40
1753533138374;N;$IIHDG,305,,,01,W*07
1753533138375;N;$IIMTW,+15.5,C*39
1753533138376;N;$IIMWV,002,R,07.8,N,A*1E
1753533138393;N;$IIMWV,002,T,06.4,N,A*15
1753533138395;N;$GNRMC,123217.000,A,5317.98425,N,00607.53750,W,0.15,200.73,260725,,*0A
1753533138396;N;!AIVDO,1,1,,A,B8<Qc=h00WpwF8WWvD9uMT803P06,0*21
1753533138396;N;!AIVDO,1,1,,B,H8<Qc=h8h4<e<PDE00000000000,2*6E
1753533138398;N;!AIVDO,1,1,,A,H8<Qc=lT?>G100059F6q00102210,0*15
1753533138498;N;$IIRMC,123214,A,5317.984,N,00607.537,W,00.0,200,260725,01,W,A*09
1753533138565;N;$IIVHW,,,305,M,01.7,N,,*64
1753533138631;N;$IIVLW,01608,N,000.0,N*5C
1753533138665;N;$IIVWR,004,R,09.8,N,,,,*64
1753533139034;N;$IIGLL,5317.984,N,00607.537,W,123214,A,A*40
1753533139035;N;$IIHDG,305,,,01,W*07
1753533139036;N;$IIMTW,+15.5,C*39
1753533139038;N;$IIMWV,004,R,09.8,N,A*16
1753533139134;N;$GNRMC,123218.000,A,5317.98428,N,00607.53752,W,0.08,200.73,260725,,*06
1753533139366;N;$IIMWV,004,T,08.1,N,A*18
1753533139498;N;$IIRMC,123214,A,5317.984,N,00607.537,W,00.0,200,260725,01,W,A*09
1753533139565;N;$IIVHW,,,304,M,01.9,N,,*6B
1753533139631;N;$IIVLW,01608,N,000.0,N*5C
1753533139665;N;$IIVWR,007,R,11.3,N,,,,*65
1753533139804;N;$IIDPT,008.1,-1.2,*4B
1753533139831;N;$IIGLL,5317.984,N,00607.537,W,123214,A,A*40
1753533139933;N;$IIHDG,304,,,01,W*06
1753533139935;N;$IIMTW,+15.5,C*39
1753533140120;N;$GNRMC,123219.000,A,5317.98433,N,00607.53754,W,0.19,200.73,260725,,*0B
1753533140364;N;$IIMWV,005,R,10.8,N,A*1F
1753533140431;N;$IIMWV,008,T,09.1,N,A*15
1753533140564;N;$IIRMC,123214,A,5317.984,N,00607.537,W,00.0,200,260725,01,W,A*09
1753533140630;N;$IIVHW,,,305,M,02.3,N,,*63
1753533140664;N;$IIVLW,01608,N,000.0,N*5C
1753533140730;N;$IIVWR,005,R,10.8,N,,,,*6D
1753533140877;N;!AIVDM,1,1,,B,13m2gD8000OSqOtNOpbP09Db00Su,0*4F
1753533140879;N;$IIDPT,008.1,-1.2,*4B
1753533140881;N;$IIGLL,5317.984,N,00607.537,W,123214,A,A*40
1753533140982;N;$IIHDG,305,,,01,W*07
1753533141120;N;$GNRMC,123220.000,A,5317.98437,N,00607.53749,W,0.20,200.73,260725,,*03
1753533141364;N;$IIMTW,+15.5,C*39
1753533141398;N;$IIMWV,004,R,11.1,N,A*16
1753533141466;N;$IIMWV,006,T,08.5,N,A*1E
1753533141598;N;$IIRMC,123214,A,5317.984,N,00607.537,W,00.0,200,260725,01,W,A*09
1753533141664;N;$IIVHW,,,303,M,02.4,N,,*62
1753533141697;N;$IIVLW,01608,N,000.0,N*5C
1753533141764;N;$IIVWR,004,R,11.1,N,,,,*64
1753533141909;N;$IIDPT,008.1,-1.2,*4B
1753533141911;N;$IIGLL,5317.984,N,00607.537,W,123214,A,A*40
1753533142113;N;$GPGSA,A,3,01,03,04,06,09,11,17,19,28,31,,,1.1,0.6,1.0*3A
1753533142130;N;$BDGSA,A,3,05,06,09,11,14,16,21,28,33,39,42,43,1.1,0.6,1.0*2E
1753533142148;N;$GPGSV,4,1,15,01,15,133,45,03,41,080,47,04,68,107,46,06,58,295,41*7E
1753533142167;N;$GPGSV,4,2,15,09,52,193,44,11,21,304,31,12,,,29,17,27,212,41*47
1753533142656;N;$GPGSV,4,3,15,19,40,237,40,25,,,28,28,07,021,36,31,20,045,43*44
1753533142658;N;$GPGSV,4,4,15,34,,,43,36,,,44,40,,,41*79
1753533142658;N;$BDGSV,5,1,17,05,08,109,37,06,25,047,41,09,29,062,42,11,26,169,43*61
1753533142658;N;$BDGSV,5,2,17,14,76,225,42,16,25,045,44,21,21,061,49,26,,,40*55
1753533142658;N;$BDGSV,5,3,17,27,,,32,28,47,291,41,33,48,236,40,34,,,40*66
1753533142659;N;$BDGSV,5,4,17,36,,,35,39,20,032,40,42,73,071,45,43,44,194,45*5E
1753533142660;N;$BDGSV,5,5,17,45,11,051,45*5A
1753533142662;N;$GNRMC,123221.000,A,5317.98440,N,00607.53747,W,0.08,200.73,260725,,*06
1753533142663;N;$IIHDG,303,,,01,W*01
1753533142665;N;$IIMTW,+15.5,C*39
1753533142666;N;$IIMWV,004,R,10.7,N,A*11
1753533142668;N;$IIMWV,005,T,08.6,N,A*1E
1753533142670;N;$IIRMC,123214,A,5317.984,N,00607.537,W,00.0,200,260725,01,W,A*09
1753533142794;N;$IIVHW,,,303,M,02.4,N,,*62
1753533142795;N;$IIVLW,01608,N,000.0,N*5C
1753533142843;N;$IIVWR,004,R,10.7,N,,,,*63
1753533142869;N;$IIDPT,008.1,-1.2,*4B
1753533143396;N;$GNRMC,123222.000,A,5317.98442,N,00607.53743,W,0.12,200.73,260725,,*08
1753533143411;N;$IIGLL,5317.984,N,00607.537,W,123214,A,A*40
1753533143477;N;$IIHDG,302,,,01,W*00
1753533143510;N;$IIMTW,+15.5,C*39
1753533143725;N;$IIMWV,007,R,10.9,N,A*1C
1753533143728;N;$IIMWV,005,T,08.3,N,A*1B
1753533143744;N;$IIRMC,123214,A,5317.984,N,00607.537,W,00.0,200,260725,01,W,A*09
1753533143850;N;$IIVHW,,,302,M,02.3,N,,*64
1753533143905;N;$IIVLW,01608,N,000.0,N*5C
1753533143915;N;$IIVWR,007,R,10.9,N,,,,*6E
1753533144146;N;$GNGGA,123223.000,5317.98445,N,00607.53736,W,1,23,0.6,3.8,M,55.8,M,,*56
1753533144148;N;$GNRMC,123223.000,A,5317.98445,N,00607.53736,W,0.17,200.73,260725,,*09
1753533144324;N;!AIVDM,1,1,,A,4>jQM4ivUu<PHOSq<RNOjSo00@>>,0*61
1753533144376;N;$IIDPT,008.1,-1.2,*4B
1753533144606;N;$IIGLL,5317.984,N,00607.537,W,123214,A,A*40
1753533144608;N;$IIHDG,301,,,01,W*03
1753533144609;N;$IIMTW,+16.0,C*3F
1753533144611;N;$IIMWV,008,R,11.0,N,A*1B
1753533144791;N;$IIMWV,009,T,08.5,N,A*11
1753533144809;N;$IIRMC,123214,A,5317.984,N,00607.537,W,00.0,200,260725,01,W,A*09
1753533144842;N;$IIVHW,,,301,M,02.3,N,,*67
1753533144903;N;$IIVLW,01608,N,000.0,N*5C
1753533145158;N;$GNRMC,123224.000,A,5317.98449,N,00607.53734,W,0.09,200.73,260725,,*0F
1753533145375;N;$IIVWR,008,R,11.0,N,,,,*69
1753533145442;N;$IIDPT,008.1,-1.2,*4B
1753533145509;N;$IIGLL,5317.984,N,00607.537,W,123214,A,A*40
1753533145575;N;$IIHDG,301,,,01,W*03
1753533145608;N;$IIMTW,+16.0,C*3F
1753533145674;N;$IIMWV,008,R,11.0,N,A*1B
1753533145723;N;$IIMWV,010,T,08.6,N,A*1A
1753533145841;N;$IIRMC,123214,A,5317.984,N,00607.537,W,00.0,200,260725,01,W,A*09
1753533145903;N;$IIVHW,,,301,M,02.2,N,,*66
1753533146118;N;$GNRMC,123225.000,A,5317.98455,N,00607.53726,W,0.18,200.73,260725,,*00
1753533146363;N;$IIVLW,01608,N,000.0,N*5C
1753533146433;N;$IIVWR,007,R,11.3,N,,,,*65
1753533146463;N;$IIDPT,008.1,-1.2,*4B
1753533146563;N;$IIGLL,5317.984,N,00607.537,W,123214,A,A*40
1753533146629;N;$IIHDG,299,,,01,W*03
1753533146662;N;$IIMTW,+16.0,C*3F
1753533146695;N;$IIMWV,007,R,11.3,N,A*17
1753533146771;N;$IIMWV,010,T,08.7,N,A*1B
1753533146889;N;$IIRMC,123214,A,5317.984,N,00607.537,W,00.0,200,260725,01,W,A*09
1753533147113;N;$GPGSA,A,3,01,03,04,06,09,11,17,19,28,31,,,1.1,0.6,1.0*3A
1753533147130;N;$BDGSA,A,3,05,06,09,11,14,16,21,28,33,39,42,43,1.1,0.6,1.0*2E
1753533147146;N;$GPGSV,4,1,15,01,15,133,44,03,41,080,47,04,68,107,45,06,58,294,39*72
1753533147167;N;$GPGSV,4,2,15,09,52,193,44,11,21,304,34,12,,,28,17,27,212,41*43
1753533147656;N;$GPGSV,4,3,15,19,40,237,41,25,,,29,28,07,021,37,31,20,045,44*42
1753533147658;N;$GPGSV,4,4,15,34,,,42,36,,,44,40,,,41*78
1753533147658;N;$BDGSV,5,1,17,05,08,109,37,06,25,047,38,09,29,062,42,11,26,169,44*68
1753533147658;N;$BDGSV,5,2,17,14,76,225,42,16,25,045,45,21,21,061,50,26,,,41*5D
1753533147658;N;$BDGSV,5,3,17,27,,,34,28,47,291,39,33,48,236,40,34,,,40*6F
1753533147658;N;$BDGSV,5,4,17,36,,,37,39,20,032,40,42,72,071,45,43,44,194,46*5E
1753533147659;N;$BDGSV,5,5,17,45,11,051,43*5C
1753533147661;N;$GNRMC,123226.000,A,5317.98459,N,00607.53724,W,0.05,200.73,260725,,*01
1753533147663;N;$IIVHW,,,299,M,02.2,N,,*66
1753533147664;N;$IIVLW,01608,N,000.0,N*5C
1753533147665;N;$IIVWR,010,R,11.5,N,,,,*65
1753533147666;N;$IIDPT,008.1,-1.2,*4B
1753533147667;N;$IIGLL,5317.984,N,00607.537,W,123214,A,A*40
1753533147669;N;$IIHDG,299,,,01,W*03
1753533147793;N;$IIMTW,+16.0,C*3F
1753533147795;N;$IIMWV,010,R,11.5,N,A*17
1753533147811;N;$IIMWV,009,T,08.9,N,A*1D
1753533148358;N;$GNRMC,123227.000,A,5317.98465,N,00607.53717,W,0.18,200.73,260725,,*03
1753533148359;N;!AIVDO,1,1,,A,B8<Qc=h007pwF:7WvDAuMT=03P06,0*5E
1753533148360;N;!AIVDO,1,1,,B,H8<Qc=h8h4<e<PDE00000000000,2*6E
1753533148361;N;!AIVDO,1,1,,A,H8<Qc=lT?>G100059F6q00102210,0*15
1753533148510;N;$IIRMC,123214,A,5317.984,N,00607.537,W,00.0,200,260725,01,W,A*09
1753533148511;N;$IIVHW,,,298,M,02.2,N,,*67
1753533148634;N;$IIVLW,01608,N,000.0,N*5C
1753533148636;N;$IIVWR,009,R,10.9,N,,,,*60
1753533149069;N;$IIDPT,008.1,-1.2,*4B
1753533149071;N;$IIGLL,5317.984,N,00607.537,W,123214,A,A*40
1753533149072;N;$IIHDG,298,,,01,W*02
1753533149073;N;$IIMTW,+16.0,C*3F
1753533149074;N;$IIMWV,009,R,10.9,N,A*12
1753533149182;N;$GNRMC,123228.000,A,5317.98471,N,00607.53709,W,0.19,200.73,260725,,*07
1753533149365;N;$IIMWV,012,T,08.5,N,A*1B
1753533149497;N;$IIRMC,123214,A,5317.984,N,00607.537,W,00.0,200,260725,01,W,A*09
1753533149563;N;$IIVHW,,,296,M,02.2,N,,*69
1753533149817;N;$IIVLW,01608,N,000.0,N*5C
1753533149819;N;$IIVWR,009,R,11.2,N,,,,*6A
1753533149820;N;$IIDPT,008.1,-1.2,*4B
1753533149829;N;$IIGLL,5317.984,N,00607.537,W,123214,A,A*40
1753533149993;N;$IIHDG,296,,,01,W*0C
1753533149994;N;$IIMTW,+16.0,C*3F
1753533149998;N;!AIVDM,1,1,,B,B3MC52P0;7pvGu7WtwNwowfQh@AO,0*56
1753533150122;N;$GNRMC,123229.000,A,5317.98473,N,00607.53706,W,0.04,200.73,260725,,*07
1753533150364;N;$IIMWV,011,R,10.8,N,A*1A
1753533150432;N;$IIMWV,011,T,08.8,N,A*15
1753533150564;N;$IIRMC,123214,A,5317.984,N,00607.537,W,00.0,200,260725,01,W,A*09
1753533150630;N;$IIVHW,,,294,M,02.3,N,,*6A
1753533150663;N;$IIVLW,01608,N,000.0,N*5C
1753533150729;N;$IIVWR,011,R,10.8,N,,,,*68
1753533150881;N;$IIDPT,008.1,-1.2,*4B
1753533150883;N;$IIGLL,5317.984,N,00607.537,W,123214,A,A*40
1753533150908;N;$IIHDG,294,,,01,W*0E
1753533151017;N;!AIVDM,1,1,,B,402HVp1vUu<PNwT=qtNRUbG008B9,0*0C
1753533151119;N;$GNRMC,123230.000,A,5317.98477,N,00607.53699,W,0.18,200.73,260725,,*01
1753533151364;N;$IIMTW,+16.0,C*3F
1753533151397;N;$IIMWV,013,R,10.6,N,A*16
1753533151465;N;$IIMWV,014,T,08.4,N,A*1C
1753533151597;N;$IIRMC,123214,A,5317.984,N,00607.537,W,00.0,200,260725,01,W,A*09
1753533151663;N;$IIVHW,,,293,M,02.3,N,,*6D
1753533151696;N;$IIVLW,01608,N,000.0,N*5C
1753533151762;N;$IIVWR,013,R,10.6,N,,,,*64
1753533151913;N;!AIVDM,1,1,,A,13m2gD8000OSqOtNOp`009E000RK,0*42
1753533151915;N;$IIDPT,008.1,-1.2,*4B
1753533151917;N;$IIGLL,5317.984,N,00607.537,W,123214,A,A*40
1753533152120;N;$GPGSA,A,3,01,03,04,06,09,11,17,19,28,31,,,1.1,0.6,1.0*3A
1753533152280;N;$BDGSA,A,3,05,06,09,11,14,16,21,28,33,39,42,43,1.1,0.6,1.0*2E
1753533152281;N;$GPGSV,4,1,15,01,15,133,43,03,41,080,46,04,68,107,45,06,58,294,39*74
1753533152281;N;$GPGSV,4,2,15,09,52,193,43,11,21,304,37,12,,,28,17,27,212,40*46
1753533152281;N;$GPGSV,4,3,15,19,40,237,42,25,,,25,28,06,021,38,31,20,045,46*41
1753533152282;N;$GPGSV,4,4,15,34,,,42,36,,,45,40,,,41*79
1753533152282;N;$BDGSV,5,1,17,05,08,109,37,06,25,046,43,09,29,062,43,11,26,169,42*62
1753533152282;N;$BDGSV,5,2,17,14,76,225,41,16,25,045,45,21,21,061,49,26,,,39*59
1753533152283;N;$BDGSV,5,3,17,27,,,34,28,47,291,37,33,48,236,40,34,,,41*60
1753533152283;N;$BDGSV,5,4,17,36,,,34,39,20,032,41,42,72,071,46,43,44,194,44*5D
1753533152283;N;$BDGSV,5,5,17,45,11,051,44*5B
1753533152297;N;$GNRMC,123231.000,A,5317.98480,N,00607.53692,W,0.11,200.73,260725,,*0A
1753533152849;N;$IIHDG,292,,,01,W*08
1753533152851;N;$IIMTW,+16.0,C*3F
1753533152852;N;$IIMWV,014,R,10.5,N,A*12
1753533152854;N;$IIMWV,016,T,08.1,N,A*1B
1753533152856;N;$IIRMC,123214,A,5317.984,N,00607.537,W,00.0,200,260725,01,W,A*09
1753533152857;N;$IIVHW,,,292,M,02.3,N,,*6C
1753533152858;N;$IIVLW,01608,N,000.0,N*5C
1753533152860;N;$IIVWR,014,R,10.5,N,,,,*60
1753533152869;N;!AIVDM,1,1,,A,H3P:`7TTCBD5Hc==BA@o000p6130,0*53
1753533152871;N;$IIDPT,008.1,-1.2,*4B
1753533153125;N;$GNRMC,123232.000,A,5317.98483,N,00607.53687,W,0.17,200.73,260725,,*08
1753533153396;N;$IIGLL,5317.984,N,00607.536,W,123232,A,A*45
1753533153463;N;$IIHDG,291,,,01,W*0B
1753533153495;N;$IIMTW,+16.0,C*3F
1753533153529;N;$IIMWV,015,R,10.5,N,A*13
1753533153603;N;$IIMWV,018,T,08.1,N,A*15
1753533153733;N;$IIRMC,123232,A,5317.984,N,00607.536,W,00.1,200,260725,01,W,A*0D
1753533153795;N;$IIVHW,,,291,M,02.3,N,,*6F
1753533153861;N;$IIVLW,01608,N,000.0,N*5C
1753533153899;N;$IIVWR,015,R,10.5,N,,,,*61
1753533154162;N;$GNGGA,123233.000,5317.98482,N,00607.53684,W,1,23,0.6,3.8,M,55.8,M,,*54
1753533154180;N;$GNRMC,123233.000,A,5317.98482,N,00607.53684,W,0.12,200.82,260725,,*00
1753533154324;N;!AIVDM,1,1,,B,4>jQM4ivUu<PROSq<RNOjSo005R0,0*6F
1753533154364;N;$IIDPT,008.1,-1.2,*4B
1753533154621;N;$IIGLL,5317.984,N,00607.536,W,123232,A,A*45
1753533154623;N;$IIHDG,291,,,01,W*0B
1753533154624;N;$IIMTW,+16.0,C*3F
1753533154625;N;$IIMWV,017,R,09.2,N,A*1E
1753533154719;N;$IIMWV,019,T,08.2,N,A*17
1753533154795;N;$IIRMC,123232,A,5317.984,N,00607.536,W,00.1,200,260725,01,W,A*0D
1753533154828;N;$IIVHW,,,291,M,02.3,N,,*6F
1753533154888;N;$IIVLW,01608,N,000.0,N*5C
1753533155170;N;$GNRMC,123234.000,A,5317.98484,N,00607.53680,W,0.15,200.82,260725,,*02
1753533155363;N;$IIVWR,017,R,09.7,N,,,,*69
1753533155430;N;$IIDPT,008.1,-1.2,*4B
1753533155496;N;$IIGLL,5317.984,N,00607.536,W,123232,A,A*45
1753533155563;N;$IIHDG,289,,,01,W*02
1753533155595;N;$IIMTW,+16.0,C*3F
1753533155661;N;$IIMWV,017,R,09.7,N,A*1B
1753533155702;N;$IIMWV,022,T,07.0,N,A*12
1753533155827;N;$IIRMC,123232,A,5317.984,N,00607.536,W,00.1,200,260725,01,W,A*0D
1753533155889;N;$IIVHW,,,289,M,02.3,N,,*66
1753533156124;N;$GNRMC,123235.000,A,5317.98485,N,00607.53678,W,0.02,201.03,260725,,*0B
1753533156363;N;$IIVLW,01608,N,000.0,N*5C
1753533156429;N;$IIVWR,019,R,10.0,N,,,,*68
1753533156462;N;$IIDPT,008.1,-1.2,*4B
1753533156561;N;$IIGLL,5317.984,N,00607.536,W,123232,A,A*45
1753533156627;N;$IIHDG,288,,,01,W*03
1753533156660;N;$IIMTW,+16.0,C*3F
1753533156693;N;$IIMWV,019,R,10.0,N,A*1A
1753533156771;N;$IIMWV,022,T,07.5,N,A*17
1753533156887;N;$IIRMC,123232,A,5317.984,N,00607.536,W,00.1,200,260725,01,W,A*0D
1753533157159;N;$GPGSA,A,3,01,03,04,06,09,11,17,19,28,31,,,1.1,0.6,1.0*3A
1753533157175;N;$BDGSA,A,3,05,06,09,11,14,16,21,28,33,39,42,43,1.1,0.6,1.0*2E
1753533157192;N;$GPGSV,4,1,15,01,15,133,43,03,41,080,47,04,68,106,44,06,58,294,40*7B
1753533157213;N;$GPGSV,4,2,15,09,52,193,44,11,21,305,32,12,,,27,17,27,212,38*45
1753533157700;N;$GPGSV,4,3,15,19,40,237,41,25,,,28,28,06,021,41,31,20,045,47*40
1753533157702;N;$GPGSV,4,4,15,34,,,40,36,,,45,40,,,41*7B
1753533157702;N;$BDGSV,5,1,17,05,08,109,37,06,25,046,44,09,29,062,43,11,26,169,41*66
1753533157702;N;$BDGSV,5,2,17,14,76,225,40,16,25,045,46,21,21,061,50,26,,,40*5D
1753533157702;N;$BDGSV,5,3,17,27,,,34,28,47,291,37,33,48,236,41,34,,,41*61
1753533157702;N;$BDGSV,5,4,17,36,,,37,39,20,032,39,42,72,071,46,43,44,194,44*51
1753533157703;N;$BDGSV,5,5,17,45,11,051,46*59
1753533157705;N;$GNRMC,123236.000,A,5317.98485,N,00607.53676,W,0.09,201.03,260725,,*0D
1753533157707;N;$IIVHW,,,288,M,02.2,N,,*66
1753533157708;N;$IIVLW,01608,N,000.0,N*5C
1753533157709;N;$IIVWR,019,R,10.2,N,,,,*6A
1753533157710;N;$IIDPT,008.1,-1.2,*4B
1753533157711;N;$IIGLL,5317.984,N,00607.536,W,123232,A,A*45
1753533157712;N;$IIHDG,288,,,01,W*03
1753533157713;N;$IIMTW,+16.0,C*3F
1753533157821;N;$IIMWV,019,R,10.2,N,A*18
1753533157824;N;$IIMWV,025,T,07.9,N,A*1C
1753533158165;N;$GNRMC,123237.000,A,5317.98485,N,00607.53678,W,0.08,201.17,260725,,*06
1753533158176;N;!AIVDO,1,1,,B,B8<Qc=h007pwF<WWvDQuaTj03P06,0*50
1753533158317;N;!AIVDO,1,1,,A,H8<Qc=h8h4<e<PDE00000000000,2*6D
1753533158318;N;!AIVDO,1,1,,B,H8<Qc=lT?>G100059F6q00102210,0*16
1753533158538;N;$IIRMC,123232,A,5317.984,N,00607.536,W,00.1,200,260725,01,W,A*0D
1753533158539;N;$IIVHW,,,287,M,02.3,N,,*68
1753533158562;N;$IIVLW,01608,N,000.0,N*5C
1753533158657;N;$IIVWR,020,R,10.3,N,,,,*61
1753533158957;N;$IIDPT,008.1,-1.2,*4B
1753533158959;N;$IIGLL,5317.984,N,00607.536,W,123232,A,A*45
1753533158960;N;$IIHDG,287,,,01,W*0C
1753533158961;N;$IIMTW,+16.0,C*3F
1753533158962;N;$IIMWV,020,R,10.3,N,A*13
1753533159158;N;$GNRMC,123238.000,A,5317.98481,N,00607.53677,W,0.07,198.96,260725,,*07
1753533159365;N;$IIMWV,026,T,08.0,N,A*19
1753533159443;N;!AIVDM,1,1,,B,H3fKbs0<u8Tq@PT4p0000000000,2*04
1753533159497;N;$IIRMC,123232,A,5317.984,N,00607.536,W,00.1,200,260725,01,W,A*0D
1753533159562;N;$IIVHW,,,286,M,02.4,N,,*6E
1753533159630;N;$IIVLW,01608,N,000.0,N*5C
1753533159805;N;$IIVWR,022,R,10.0,N,,,,*60
1753533159807;N;$IIDPT,008.1,-1.2,*4B
1753533159827;N;$IIGLL,5317.984,N,00607.536,W,123232,A,A*45
1753533159860;N;$IIHDG,286,,,01,W*0D
1753533159981;N;$IIMTW,+16.0,C*3F
1753533160121;N;$GNRMC,123239.000,A,5317.98477,N,00607.53678,W,0.05,199.39,260725,,*06
1753533160271;N;!AIVDM,1,1,,B,B3ILlGP00?pvN67Wuq?Q3wl5oP06,0*45
1753533160364;N;$IIMWV,025,R,10.2,N,A*17
1753533160431;N;$IIMWV,028,T,07.8,N,A*10
1753533160563;N;$IIRMC,123232,A,5317.984,N,00607.536,W,00.1,200,260725,01,W,A*0D
1753533160629;N;$IIVHW,,,287,M,02.3,N,,*68
1753533160661;N;$IIVLW,01608,N,000.0,N*5C
1753533160727;N;$IIVWR,025,R,10.2,N,,,,*65
1753533160873;N;$IIDPT,008.1,-1.2,*4B
1753533160875;N;$IIGLL,5317.984,N,00607.536,W,123232,A,A*45
1753533160906;N;$IIHDG,287,,,01,W*0C
1753533161017;N;!AIVDM,1,1,,A,402HVp1vUu<P`wT=qtNRUbG00L1o,0*70
1753533161111;N;$GNRMC,123240.000,A,5317.98475,N,00607.53677,W,0.06,199.39,260725,,*06
1753533161364;N;$IIMTW,+16.0,C*3F
1753533161397;N;$IIMWV,023,R,10.3,N,A*10
1753533161464;N;$IIMWV,032,T,07.9,N,A*1A
1753533161596;N;$IIRMC,123232,A,5317.984,N,00607.536,W,00.1,200,260725,01,W,A*0D
1753533161662;N;$IIVHW,,,288,M,02.3,N,,*67
1753533161694;N;$IIVLW,01608,N,000.0,N*5C
1753533161761;N;$IIVWR,023,R,10.3,N,,,,*62
1753533161913;N;$IIDPT,008.1,-1.2,*4B
1753533161915;N;$IIGLL,5317.984,N,00607.536,W,123232,A,A*45
1753533162030;N;!AIVDM,1,1,,B,13m2gD8000OSqOtNOpbP09ED0D0m,0*67
1753533162114;N;$GPGSA,A,3,01,03,04,06,09,11,17,19,28,31,,,1.1,0.6,1.0*3A
1753533162130;N;$BDGSA,A,3,05,06,09,11,14,16,21,28,33,39,42,43,1.1,0.6,1.0*2E
1753533162147;N;$GPGSV,4,1,15,01,15,133,43,03,41,080,48,04,68,106,44,06,58,294,39*7A
1753533162268;N;$GPGSV,4,2,15,09,52,193,43,11,21,305,35,12,,,27,17,27,212,40*4A
1753533162269;N;$GPGSV,4,3,15,19,40,237,40,25,,,31,28,06,021,42,31,20,045,46*4B
1753533162270;N;$GPGSV,4,4,15,34,,,40,36,,,45,40,,,41*7B
1753533162270;N;$BDGSV,5,1,17,05,08,109,37,06,25,046,44,09,29,062,45,11,26,169,41*60
1753533162270;N;$BDGSV,5,2,17,14,76,225,41,16,25,045,46,21,21,061,49,26,,,42*56
1753533162270;N;$BDGSV,5,3,17,27,,,33,28,47,291,37,33,48,236,39,34,,,41*69
1753533162270;N;$BDGSV,5,4,17,36,,,39,39,20,032,43,42,72,071,46,43,44,194,42*54
1753533162271;N;$BDGSV,5,5,17,45,11,051,44*5B
1753533162695;N;$GNRMC,123241.000,A,5317.98473,N,00607.53675,W,0.01,199.39,260725,,*04
1753533162696;N;$IIHDG,288,,,01,W*03
1753533162697;N;$IIMTW,+16.0,C*3F
1753533162698;N;$IIMWV,021,R,09.9,N,A*10
1753533162701;N;$IIMWV,030,T,08.0,N,A*1E
1753533162702;N;$IIRMC,123232,A,5317.984,N,00607.536,W,00.1,200,260725,01,W,A*0D
1753533162705;N;$IIVHW,,,288,M,02.3,N,,*67
1753533162809;N;$IIVLW,01608,N,000.0,N*5C
1753533163213;N;$IIVWR,021,R,09.9,N,,,,*62
1753533163215;N;$IIDPT,008.1,-1.2,*4B
1753533163217;N;$GNRMC,123242.000,A,5317.98466,N,00607.53680,W,0.08,199.07,260725,,*0D
1753533163397;N;$IIGLL,5317.984,N,00607.536,W,123241,A,A*41
1753533163463;N;$IIHDG,289,,,01,W*02
1753533163496;N;$IIMTW,+16.0,C*3F
1753533163529;N;$IIMWV,024,R,09.7,N,A*1B
1753533163710;N;$IIMWV,027,T,07.7,N,A*10
1753533163728;N;$IIRMC,123241,A,5317.984,N,00607.536,W,00.0,199,260725,01,W,A*0B
1753533163794;N;$IIVHW,,,289,M,02.3,N,,*66
1753533163859;N;$IIVLW,01608,N,000.0,N*5C
1753533163897;N;$IIVWR,024,R,09.7,N,,,,*69
1753533164117;N;$GNGGA,123243.000,5317.98463,N,00607.53682,W,1,23,0.6,3.8,M,55.8,M,,*5A
1753533164135;N;$GNRMC,123243.000,A,5317.98463,N,00607.53682,W,0.05,199.07,260725,,*06
1753533164324;N;!AIVDM,1,1,,A,4>jQM4ivUu<PdOSq<RNOjSo00<0i,0*68
1753533164365;N;$IIDPT,008.1,-1.2,*4B
1753533164569;N;$IIGLL,5317.984,N,00607.536,W,123241,A,A*41
1753533164571;N;$IIHDG,288,,,01,W*03
1753533164572;N;$IIMTW,+16.0,C*3F
1753533164597;N;$IIMWV,023,R,10.1,N,A*12
1753533164807;N;$IIMWV,031,T,07.5,N,A*15
1753533164809;N;$IIRMC,123241,A,5317.984,N,00607.536,W,00.0,199,260725,01,W,A*0B
1753533164866;N;$IIVHW,,,288,M,02.2,N,,*66
1753533164877;N;!AIVDM,1,1,,A,B3fQ41P01OpvnW7Wua;Q2A3UoP06,0*76
1753533164890;N;$IIVLW,01608,N,000.0,N*5C
1753533165120;N;$GNRMC,123244.000,A,5317.98461,N,00607.53685,W,0.05,200.41,260725,,*05
1753533165374;N;$IIVWR,019,R,10.2,N,,,,*6A
1753533165430;N;$IIDPT,008.1,-1.2,*4B
1753533165496;N;$IIGLL,5317.984,N,00607.536,W,123241,A,A*41
1753533165563;N;$IIHDG,289,,,01,W*02
1753533165596;N;$IIMTW,+16.0,C*3F
1753533165662;N;$IIMWV,019,R,10.2,N,A*18
1753533165706;N;$IIMWV,029,T,08.0,N,A*16
1753533165829;N;$IIRMC,123241,A,5317.984,N,00607.536,W,00.0,199,260725,01,W,A*0B
1753533165891;N;$IIVHW,,,289,M,02.2,N,,*67
1753533166112;N;$GNRMC,123245.000,A,5317.98459,N,00607.53691,W,0.07,200.36,260725,,*08
1753533166192;N;!AIVDM,1,1,,B,B3fK2E0047pvdh7WwKC7WwnUoP06,0*0D
1753533166364;N;$IIVLW,01608,N,000.0,N*5C
1753533166430;N;$IIVWR,018,R,10.3,N,,,,*6A
1753533166463;N;$IIDPT,008.1,-1.2,*4B
1753533166563;N;$IIGLL,5317.984,N,00607.536,W,123241,A,A*41
1753533166629;N;$IIHDG,290,,,01,W*0A
1753533166662;N;$IIMTW,+16.0,C*3F
1753533166696;N;$IIMWV,018,R,10.3,N,A*18
1753533166770;N;$IIMWV,024,T,08.1,N,A*1A
1753533166890;N;$IIRMC,123241,A,5317.984,N,00607.536,W,00.0,199,260725,01,W,A*0B
1753533167005;N;$ONWA,DEV,AIS,B+,KS20A-MK2,3.1,2.2.3-240925,550005559,1.2.0-20230722,*00
1753533167016;N;AutoSendDevIdMsg(): get_timer_second() = 240
1753533167116;N;$GPGSA,A,3,01,03,04,06,09,11,17,19,28,31,,,1.1,0.6,1.0*3A
1753533167160;N;$BDGSA,A,3,05,06,09,11,14,16,21,28,33,39,42,43,1.1,0.6,1.0*2E
1753533167161;N;$GPGSV,4,1,15,01,15,133,43,03,41,080,48,04,68,106,44,06,58,294,41*75
1753533167532;N;$GPGSV,4,2,15,09,52,193,43,11,21,305,31,12,,,31,17,27,212,42*4B
1753533167533;N;$GPGSV,4,3,15,19,40,237,39,25,,,25,28,06,021,41,31,20,045,46*43
1753533167534;N;$GPGSV,4,4,15,34,,,39,36,,,45,40,,,41*75
1753533167534;N;$BDGSV,5,1,17,05,08,109,38,06,25,046,44,09,29,062,43,11,26,169,42*6A
1753533167534;N;$BDGSV,5,2,17,14,76,225,41,16,25,045,45,21,21,061,50,26,,,41*5E
1753533167534;N;$BDGSV,5,3,17,27,,,34,28,47,291,37,33,48,236,39,34,,,42*6D
1753533167534;N;$BDGSV,5,4,17,36,,,39,39,20,032,41,42,72,071,46,43,44,194,44*50
1753533167535;N;$BDGSV,5,5,17,45,11,051,45*5A
1753533167537;N;$GNRMC,123246.000,A,5317.98454,N,00607.53699,W,0.10,201.24,260725,,*0A
1753533167538;N;$IIVHW,,,290,M,02.2,N,,*6F
1753533167539;N;$IIVLW,01608,N,000.0,N*5C
1753533167540;N;$IIVWR,019,R,10.0,N,,,,*68
1753533167541;N;$IIDPT,008.1,-1.2,*4B
1753533167685;N;$IIGLL,5317.984,N,00607.536,W,123241,A,A*41
1753533167687;N;$IIHDG,290,,,01,W*0A
1753533167694;N;$IIMTW,+16.0,C*3F
1753533167805;N;$IIMWV,019,R,10.0,N,A*1A
1753533168563;N;$IIMWV,022,T,08.1,N,A*1C
1753533168565;N;$IIRMC,123241,A,5317.984,N,00607.536,W,00.0,199,260725,01,W,A*0B
1753533168566;N;$IIVHW,,,290,M,02.2,N,,*6F
1753533168567;N;!AIVDM,1,1,,B,D>jQM4hhLw6Dk4w6E6DO6DuLNfp,2*23
1753533168569;N;$GNRMC,123247.000,A,5317.98453,N,00607.53708,W,0.05,201.26,260725,,*03
1753533168569;N;!AIVDO,1,1,,B,B8<Qc=h00GpwF<7WvDAuiTo03P06,0*5D
1753533168570;N;!AIVDO,1,1,,A,H8<Qc=h8h4<e<PDE00000000000,2*6D
1753533168571;N;!AIVDO,1,1,,B,H8<Qc=lT?>G100059F6q00102210,0*16
1753533168573;N;$IIVLW,01608,N,000.0,N*5C
1753533168741;N;$IIVWR,019,R,10.1,N,,,,*69
1753533168743;N;$IIDPT,008.1,-1.2,*4B
1753533168763;N;$IIGLL,5317.984,N,00607.536,W,123241,A,A*41
1753533169073;N;$IIHDG,290,,,01,W*0A
1753533169074;N;$IIMTW,+16.0,C*3F
1753533169075;N;$IIMWV,019,R,10.1,N,A*1B
1753533169079;N;!AIVDM,1,1,,A,B3fKcq@00GpvH@WWu;KQ3wp1jDSr,0*3F
1753533169126;N;$GNRMC,123248.000,A,5317.98452,N,00607.53713,W,0.09,203.14,260725,,*08
1753533169365;N;$IIMWV,025,T,07.9,N,A*1C
1753533169498;N;$IIRMC,123241,A,5317.984,N,00607.536,W,00.0,199,260725,01,W,A*0B
1753533169563;N;$IIVHW,,,291,M,02.3,N,,*6F
1753533169637;N;$IIVLW,01608,N,000.0,N*5C
1753533169662;N;$IIVWR,018,R,09.5,N,,,,*64
1753533169841;N;$IIDPT,008.1,-1.2,*4B
1753533169843;N;$IIGLL,5317.984,N,00607.536,W,123241,A,A*41
1753533169862;N;$IIHDG,291,,,01,W*0B
1753533169893;N;$IIMTW,+16.0,C*3F
1753533170197;N;$GNRMC,123249.000,A,5317.98449,N,00607.53720,W,0.12,202.38,260725,,*06
1753533170364;N;$IIMWV,016,R,09.4,N,A*19
1753533170432;N;$IIMWV,023,T,07.3,N,A*10
1753533170563;N;$IIRMC,123241,A,5317.984,N,00607.536,W,00.0,199,260725,01,W,A*0B
1753533170630;N;$IIVHW,,,291,M,02.3,N,,*6F
1753533170663;N;$IIVLW,01608,N,000.0,N*5C
1753533170729;N;$IIVWR,016,R,09.4,N,,,,*6B
1753533170881;N;$IIDPT,008.1,-1.2,*4B
1753533170883;N;$IIGLL,5317.984,N,00607.536,W,123241,A,A*41
1753533170908;N;$IIHDG,291,,,01,W*0B
1753533171017;N;!AIVDM,1,1,,B,402HVp1vUu<PjwT=qtNRUbG005R0,0*3C
1753533171123;N;$GNRMC,123250.000,A,5317.98446,N,00607.53726,W,0.12,204.31,260725,,*08
1753533171310;N;!AIVDM,1,1,,A,13m2gD8000OSqO`NOpbP09E`0D0m,0*54
1753533171364;N;$IIMTW,+16.0,C*3F
1753533171397;N;$IIMWV,017,R,09.5,N,A*19
1753533171465;N;$IIMWV,021,T,07.1,N,A*10
1753533171597;N;$IIRMC,123241,A,5317.984,N,00607.536,W,00.0,199,260725,01,W,A*0B
1753533171663;N;$IIVHW,,,291,M,02.3,N,,*6F
1753533171696;N;$IIVLW,01608,N,000.0,N*5C
1753533171762;N;$IIVWR,017,R,09.5,N,,,,*6B
1753533171913;N;$IIDPT,008.1,-1.2,*4B
1753533171915;N;$IIGLL,5317.984,N,00607.536,W,123241,A,A*41
1753533172163;N;$GPGSA,A,3,01,03,04,06,09,11,17,19,28,31,,,1.1,0.6,1.0*3A
1753533172179;N;$BDGSA,A,3,05,06,09,11,14,16,21,28,33,39,42,43,1.1,0.6,1.0*2E
1753533172196;N;$GPGSV,4,1,15,01,15,133,43,03,41,080,47,04,68,106,45,06,58,294,41*7B
1753533172217;N;$GPGSV,4,2,15,09,52,193,44,11,21,305,32,12,,,29,17,26,212,41*44
1753533172704;N;$GPGSV,4,3,15,19,40,237,41,25,,,27,28,06,021,39,31,20,045,46*41
1753533172706;N;$GPGSV,4,4,15,34,,,39,36,,,45,40,,,41*75
1753533172706;N;$BDGSV,5,1,17,05,08,109,41,06,25,046,43,09,29,062,43,11,26,169,40*61
1753533172706;N;$BDGSV,5,2,17,14,76,225,41,16,25,045,46,21,21,061,49,26,,,42*56
1753533172706;N;$BDGSV,5,3,17,27,,,33,28,47,291,37,33,48,236,40,34,,,40*66
1753533172706;N;$BDGSV,5,4,17,36,,,39,39,20,032,45,42,72,071,46,43,44,194,43*53
1753533172707;N;$BDGSV,5,5,17,45,11,051,43*5C
1753533172709;N;$GNRMC,123251.000,A,5317.98444,N,00607.53732,W,0.12,204.26,260725,,*08
1753533172710;N;$IIHDG,292,,,01,W*08
1753533172711;N;$IIMTW,+16.0,C*3F
1753533172712;N;$IIMWV,016,R,09.5,N,A*18
1753533172714;N;$IIMWV,022,T,07.2,N,A*10
1753533172716;N;$IIRMC,123241,A,5317.984,N,00607.536,W,00.1,204,260725,01,W,A*0D
1753533172717;N;$IIVHW,,,292,M,02.3,N,,*6C
1753533172842;N;$IIVLW,01608,N,000.0,N*5C
1753533172843;N;$IIVWR,016,R,09.5,N,,,,*6A
1753533172942;N;$IIDPT,008.1,-1.2,*4B
1753533173161;N;$GNRMC,123252.000,A,5317.98442,N,00607.53739,W,0.14,206.73,260725,,*02
1753533173530;N;$IIGLL,5317.984,N,00607.536,W,123241,A,A*41
1753533173532;N;$IIHDG,292,,,01,W*08
1753533173533;N;$IIMTW,+16.0,C*3F
1753533173536;N;$IIMWV,015,R,09.5,N,A*1B
1753533173715;N;$IIMWV,021,T,07.1,N,A*10
1753533173730;N;$IIRMC,123241,A,5317.984,N,00607.536,W,00.1,204,260725,01,W,A*0D
1753533173795;N;$IIVHW,,,292,M,02.3,N,,*6C
1753533173862;N;$IIVLW,01608,N,000.0,N*5C
1753533174081;N;$IIVWR,015,R,09.5,N,,,,*69
1753533174167;N;$GNGGA,123253.000,5317.98441,N,00607.53742,W,1,23,0.6,3.8,M,55.8,M,,*56
1753533174185;N;$GNRMC,123253.000,A,5317.98441,N,00607.53742,W,0.06,206.60,260725,,*0D
1753533174364;N;$IIDPT,008.1,-1.2,*4B
1753533174464;N;$IIGLL,5317.984,N,00607.536,W,123241,A,A*41
1753533174617;N;$IIHDG,293,,,01,W*09
1753533174618;N;$IIMTW,+16.0,C*3F
1753533174619;N;$IIMWV,015,R,09.4,N,A*1A
1753533174663;N;$IIMWV,020,T,07.2,N,A*12
1753533174798;N;$IIRMC,123241,A,5317.984,N,00607.536,W,00.1,204,260725,01,W,A*0D
1753533174828;N;$IIVHW,,,293,M,02.4,N,,*6A
1753533174888;N;$IIVLW,01608,N,000.0,N*5C
1753533175146;N;$GNRMC,123254.000,A,5317.98437,N,00607.53749,W,0.15,209.53,260725,,*0D
1753533175363;N;$IIVWR,017,R,09.4,N,,,,*6A
1753533175429;N;$IIDPT,008.1,-1.2,*4B
1753533175496;N;$IIGLL,5317.984,N,00607.536,W,123241,A,A*41
1753533175562;N;$IIHDG,294,,,01,W*0E
1753533175595;N;$IIMTW,+16.0,C*3F
1753533175661;N;$IIMWV,017,R,09.4,N,A*18
1753533175702;N;$IIMWV,020,T,07.0,N,A*10
1753533175827;N;$IIRMC,123241,A,5317.984,N,00607.536,W,00.1,204,260725,01,W,A*0D
1753533175889;N;$IIVHW,,,294,M,02.4,N,,*6D
1753533176130;N;$GNRMC,123255.000,A,5317.98436,N,00607.53753,W,0.05,210.00,260725,,*09
1753533176363;N;$IIVLW,01608,N,000.0,N*5C
1753533176429;N;$IIVWR,016,R,09.4,N,,,,*6B
1753533176462;N;$IIDPT,008.1,-1.2,*4B
1753533176562;N;$IIGLL,5317.984,N,00607.536,W,123241,A,A*41
1753533176627;N;$IIHDG,293,,,01,W*09
1753533176661;N;$IIMTW,+16.0,C*3F
1753533176694;N;$IIMWV,016,R,09.4,N,A*19
1753533176770;N;$IIMWV,023,T,07.0,N,A*13
