1753538400133;N;$GPGSA,A,3,03,04,06,07,09,11,19,20,21,26,29,30,0.9,0.5,0.7*33
1753538400149;N;$BDGSA,A,3,06,09,14,16,24,26,27,28,33,39,41,42,0.9,0.5,0.7*21
1753538400170;N;$GPGSV,4,1,14,03,07,101,24,04,39,061,34,06,63,204,47,07,30,153,42*76
1753538400187;N;$GPGSV,4,2,14,09,77,090,45,11,55,287,46,19,06,212,49,20,28,290,43*72
1753538400397;N;$GPRMB,A,0.17,L,6,7,5317.82,N,00605.40,W,0.3,93.5,3.2,V,A*7E
1753538400397;N;$GPAPB,A,A,0.17,L,N,V,,126.1,T,7,93.5,T,93.5,T*41
1753538400692;N;$GPGSV,4,3,14,21,32,282,46,26,07,034,34,29,05,343,40,30,07,178,41*71
1753538400693;N;$GPGSV,4,4,14,34,,,43,36,,,39*73
1753538400693;N;$BDGSV,5,1,17,05,08,110,,06,21,037,33,09,31,049,32,11,13,170,*65
1753538400693;N;$BDGSV,5,2,17,14,67,071,43,16,21,035,36,24,14,124,34,26,24,075,31*6A
1753538400693;N;$BDGSV,5,3,17,27,35,298,46,28,43,240,46,30,,,44,33,83,281,47*53
1753538400693;N;$BDGSV,5,4,17,39,11,027,35,41,31,259,49,42,38,075,38,43,08,186,42*60
1753538400694;N;$BDGSV,5,5,17,45,08,021,36*51
1753538400695;N;$GNRMC,135959.000,A,5317.83942,N,00605.91882,W,3.44,90.32,260725,,*3F
1753538400696;N;$IIDPT,014.7,-1.2,*40
1753538400697;N;$IIGLL,5317.839,N,00605.925,W,135955,A,A*43
1753538400697;N;$IIHDG,073,,,01,W*05
1753538400697;N;$IIMTW,+16.0,C*3F
1753538400698;N;$IIMWV,235,R,04.2,N,A*11
1753538400699;N;$IIMWV,208,T,07.0,N,A*18
1753538400831;N;$IIRMC,135955,A,5317.839,N,00605.925,W,03.2,089,260725,01,W,A*08
1753538400832;N;$IIVHW,,,073,M,03.7,N,,*64
1753538400933;N;$IIVLW,01612,N,003.1,N*55
1753538401104;N;stop_pwm
1753538401424;N;start_pwm
1753538401426;N;$GNRMC,140000.000,A,5317.83941,N,00605.91721,W,3.49,90.24,260725,,*37
1753538401427;N;$IIVWR,124,L,04.0,N,,,,*7C
1753538401427;N;$IIDPT,014.7,-1.2,*40
1753538401457;N;$IIGLL,5317.839,N,00605.925,W,135955,A,A*43
1753538401601;N;$IIHDG,073,,,01,W*05
1753538401602;N;$IIMTW,+16.0,C*3F
1753538401622;N;$IIMWV,236,R,04.0,N,A*10
1753538401942;N;$IIMWV,209,T,06.9,N,A*11
1753538401943;N;$IIRMC,135955,A,5317.839,N,00605.925,W,03.2,089,260725,01,W,A*08
1753538401944;N;$IIVHW,,,073,M,03.9,N,,*6A
1753538402135;N;$GNGGA,140001.000,5317.83942,N,00605.91564,W,1,26,0.5,2.6,M,55.7,M,,*5E
1753538402152;N;$GNRMC,140001.000,A,5317.83942,N,00605.91564,W,3.36,89.27,260725,,*35
1753538402325;N;$IIVLW,01612,N,003.1,N*55
1753538402390;N;$IIVWR,122,L,04.2,N,,,,*78
1753538402609;N;$IIDPT,014.7,-1.2,*40
1753538402610;N;$IIGLL,5317.839,N,00605.925,W,135955,A,A*43
1753538402611;N;$IIHDG,073,,,01,W*05
1753538402621;N;$IIMTW,+16.0,C*3F
1753538402785;N;$IIMWV,238,R,04.2,N,A*1C
1753538402786;N;$IIMWV,208,T,07.0,N,A*18
1753538402847;N;$IIRMC,135955,A,5317.839,N,00605.925,W,03.2,089,260725,01,W,A*08
1753538403130;N;$GNRMC,140002.000,A,5317.83948,N,00605.91410,W,3.36,87.66,260725,,*35
1753538403324;N;$IIVHW,,,073,M,03.9,N,,*6A
1753538403390;N;$IIVLW,01612,N,003.1,N*55
1753538403455;N;$IIVWR,125,L,04.0,N,,,,*7D
1753538403489;N;$IIDPT,014.7,-1.2,*40
1753538403588;N;$IIGLL,5317.839,N,00605.925,W,135955,A,A*43
1753538403620;N;$IIHDG,073,,,01,W*05
1753538403653;N;$IIMTW,+16.0,C*3F
1753538403719;N;$IIMWV,235,R,04.0,N,A*13
1753538403830;N;$IIMWV,210,T,07.0,N,A*11
1753538404109;N;$GNRMC,140003.000,A,5317.83945,N,00605.91253,W,3.45,90.50,260725,,*3F
1753538404423;N;$IIRMC,135955,A,5317.839,N,00605.925,W,03.2,089,260725,01,W,A*08
1753538404456;N;$IIVHW,,,074,M,03.9,N,,*6D
1753538404522;N;$IIVLW,01612,N,003.1,N*55
1753538404588;N;$IIVWR,124,L,03.9,N,,,,*72
1753538404741;N;$IIDPT,014.7,-1.2,*40
1753538404742;N;$IIGLL,5317.839,N,00605.925,W,135955,A,A*43
1753538404753;N;$IIHDG,074,,,01,W*02
1753538404819;N;$IIMTW,+16.0,C*3F
1753538404917;N;$IIMWV,236,R,03.9,N,A*1E
1753538405114;N;$GPGSA,A,3,04,06,07,09,11,19,20,21,26,29,30,,0.9,0.5,0.7*30
1753538405131;N;$BDGSA,A,3,06,09,14,16,24,26,27,28,33,39,41,42,0.9,0.5,0.7*21
1753538405152;N;$GPGSV,4,1,14,03,07,101,17,04,39,061,34,06,63,204,46,07,30,153,42*77
1753538405168;N;$GPGSV,4,2,14,09,77,090,45,11,55,286,46,19,05,212,49,20,28,290,44*77
1753538405431;N;$GPRMB,A,0.17,L,6,7,5317.82,N,00605.40,W,0.3,93.5,3.2,V,A*7E
1753538405432;N;$GPAPB,A,A,0.17,L,N,V,,126.1,T,7,93.5,T,93.5,T*41
1753538405674;N;$IIMWV,208,T,06.8,N,A*11
1753538405675;N;$IIRMC,135955,A,5317.839,N,00605.925,W,03.2,089,260725,01,W,A*08
1753538405676;N;$IIVHW,,,072,M,03.9,N,,*6B
1753538405676;N;$IIVLW,01612,N,003.1,N*55
1753538405677;N;$IIVWR,126,L,03.9,N,,,,*70
1753538405677;N;$GPGSV,4,3,14,21,32,282,46,26,07,034,35,29,05,343,39,30,07,178,41*7E
1753538405678;N;$GPGSV,4,4,14,34,,,43,36,,,40*7D
1753538405678;N;$BDGSV,5,1,17,05,08,110,,06,21,037,34,09,31,049,31,11,13,170,*61
1753538405678;N;$BDGSV,5,2,17,14,67,071,43,16,21,035,36,24,14,123,36,26,24,075,32*6C
1753538405678;N;$BDGSV,5,3,17,27,35,298,45,28,43,240,46,30,,,44,33,83,281,46*51
1753538405678;N;$BDGSV,5,4,17,39,11,027,33,41,31,259,50,42,38,075,38,43,08,186,41*6D
1753538405679;N;$BDGSV,5,5,17,45,08,021,36*51
1753538405680;N;$GNRMC,140004.000,A,5317.83942,N,00605.91092,W,3.50,90.96,260725,,*3E
1753538405809;N;$IIDPT,014.7,-1.2,*40
1753538405810;N;$IIGLL,5317.839,N,00605.925,W,135955,A,A*43
1753538405822;N;$IIHDG,072,,,01,W*04
1753538405908;N;$ONWA,DEV,AIS,B+,KS20A-MK2,3.1,2.2.3-240925,550005559,1.2.0-20230722,*00
1753538405909;N;AutoSendDevIdMsg(): get_timer_second() = 3840
1753538405909;N;$IIMTW,+16.0,C*3F
1753538406453;N;$GNRMC,140005.000,A,5317.83939,N,00605.90933,W,3.34,90.78,260725,,*32
1753538406454;N;!AIVDO,1,1,,B,B8<Qc=h08oq1E=WWtq`ple203P06,0*22
1753538406454;N;!AIVDO,1,1,,A,H8<Qc=h8h4<e<PDE00000000000,2*6D
1753538406455;N;!AIVDO,1,1,,B,H8<Qc=lT?>G100059F6q00102210,0*16
1753538406456;N;$IIMWV,236,R,03.8,N,A*1F
1753538406457;N;$IIMWV,206,T,07.0,N,A*16
1753538406745;N;$IIRMB,A,0.17,L,,7       ,,,,,000.30,093,03.2,V,A*70
1753538406746;N;$IIRMC,135955,A,5317.839,N,00605.925,W,03.2,089,260725,01,W,A*08
1753538406747;N;$IIVHW,,,073,M,03.9,N,,*6A
1753538406858;N;$IIVLW,01612,N,003.1,N*55
1753538406859;N;$IIVWR,124,L,03.8,N,,,,*73
1753538406860;N;$IIDPT,014.7,-1.2,*40
1753538407470;N;$GNRMC,140006.000,A,5317.83941,N,00605.90779,W,3.30,89.31,260725,,*3F
1753538407472;N;$IIGLL,5317.839,N,00605.909,W,140005,A,A*43
1753538407473;N;$IIHDG,072,,,01,W*04
1753538407474;N;$IIMTW,+16.0,C*3F
1753538407593;N;$IIMWV,235,R,03.9,N,A*1D
1753538407595;N;$IIMWV,207,T,06.7,N,A*11
1753538407922;N;$IIRMC,140005,A,5317.839,N,00605.909,W,03.3,090,260725,01,W,A*01
1753538407922;N;$IIVHW,,,072,M,03.8,N,,*6A
1753538407923;N;$IIVLW,01612,N,003.1,N*55
1753538407923;N;$IIVWR,125,L,03.9,N,,,,*73
1753538408153;N;$GNRMC,140007.000,A,5317.83941,N,00605.90624,W,3.38,90.10,260725,,*34
1753538408325;N;$IIDPT,014.7,-1.2,*40
1753538408425;N;$IIGLL,5317.839,N,00605.909,W,140005,A,A*43
1753538408458;N;$IIHDG,072,,,01,W*04
1753538408633;N;$IIMTW,+16.0,C*3F
1753538408634;N;$IIMWV,231,R,04.0,N,A*17
1753538408635;N;$IIMWV,207,T,06.7,N,A*11
1753538408723;N;$IIRMB,A,0.17,L,,7       ,,,,,000.30,093,03.2,V,A*70
1753538408849;N;$IIRMC,140005,A,5317.839,N,00605.909,W,03.3,090,260725,01,W,A*01
1753538409121;N;$GNRMC,140008.000,A,5317.83937,N,00605.90468,W,3.39,91.07,260725,,*36
1753538409325;N;$IIVHW,,,072,M,03.8,N,,*6A
1753538409391;N;$IIVLW,01612,N,003.1,N*55
1753538409458;N;$IIVWR,125,L,04.0,N,,,,*7D
1753538409491;N;$IIDPT,014.7,-1.2,*40
1753538409591;N;$IIGLL,5317.839,N,00605.909,W,140005,A,A*43
1753538409624;N;$IIHDG,072,,,01,W*04
1753538409657;N;$IIMTW,+16.0,C*3F
1753538409723;N;$IIMWV,235,R,04.0,N,A*13
1753538409834;N;$IIMWV,206,T,07.1,N,A*17
1753538409884;N;$IIRMB,A,0.17,L,,7       ,,,,,000.30,093,03.2,V,A*70
1753538410121;N;$GPGSA,A,3,04,06,07,09,11,19,20,21,26,29,30,,0.9,0.5,0.7*30
1753538410138;N;$BDGSA,A,3,06,09,14,16,24,26,27,28,33,39,41,42,0.9,0.5,0.7*21
1753538410159;N;$GPGSV,4,1,14,03,07,101,20,04,38,061,33,06,63,204,47,07,30,153,43*75
1753538410175;N;$GPGSV,4,2,14,09,77,090,45,11,55,286,46,19,05,212,48,20,28,290,44*76
1753538410467;N;$GPRMB,A,0.16,L,6,7,5317.82,N,00605.40,W,0.3,93.6,3.4,V,A*7A
1753538410468;N;$GPAPB,A,A,0.16,L,N,V,,126.1,T,7,93.6,T,93.6,T*40
1753538410673;N;$GPGSV,4,3,14,21,32,282,46,26,07,034,35,29,05,343,35,30,07,178,41*72
1753538410674;N;$GPGSV,4,4,14,34,,,43,36,,,40*7D
1753538410674;N;$BDGSV,5,1,17,05,08,110,,06,21,037,31,09,31,049,32,11,13,170,*67
1753538410674;N;$BDGSV,5,2,17,14,67,071,42,16,21,035,36,24,15,123,36,26,24,075,34*6A
1753538410674;N;$BDGSV,5,3,17,27,35,298,46,28,43,240,45,30,,,44,33,83,281,47*50
1753538410674;N;$BDGSV,5,4,17,39,11,027,37,41,31,259,49,42,38,075,37,43,08,186,40*6F
1753538410674;N;$BDGSV,5,5,17,45,08,021,37*50
1753538410676;N;$GNRMC,140009.000,A,5317.83940,N,00605.90320,W,3.11,89.03,260725,,*3B
1753538410681;N;$IIRMC,140005,A,5317.839,N,00605.909,W,03.3,091,260725,01,W,A*00
1753538410683;N;$IIVHW,,,072,M,03.8,N,,*6A
1753538410683;N;$IIVLW,01612,N,003.1,N*55
1753538410688;N;$IIVWR,127,L,04.1,N,,,,*7E
1753538410689;N;$IIDPT,014.7,-1.2,*40
1753538410785;N;$IIGLL,5317.839,N,00605.909,W,140005,A,A*43
1753538410786;N;$IIHDG,072,,,01,W*04
1753538410961;N;$IIMTW,+16.0,C*3F
1753538410962;N;$IIMWV,233,R,04.1,N,A*14
1753538411242;N;$GNRMC,140010.000,A,5317.83940,N,00605.90175,W,3.10,89.59,260725,,*3F
1753538411326;N;$IIMWV,207,T,07.0,N,A*17
1753538411425;N;$IIRMB,A,0.16,L,,7       ,,,,,000.30,093,03.4,V,A*77
1753538411592;N;$IIRMC,140005,A,5317.839,N,00605.909,W,03.3,091,260725,01,W,A*00
1753538411729;N;$IIVHW,,,072,M,03.9,N,,*6B
1753538411730;N;$IIVLW,01612,N,003.1,N*55
1753538411757;N;$IIVWR,123,L,04.2,N,,,,*79
1753538411865;N;$IIDPT,014.7,-1.2,*40
1753538411969;N;$IIGLL,5317.839,N,00605.909,W,140005,A,A*43
1753538412125;N;$GNGGA,140011.000,5317.83941,N,00605.90023,W,1,25,0.5,2.5,M,55.7,M,,*5B
1753538412142;N;$GNRMC,140011.000,A,5317.83941,N,00605.90023,W,3.23,89.41,260725,,*34
1753538412325;N;$IIHDG,072,,,01,W*04
1753538412358;N;$IIMTW,+16.0,C*3F
1753538412520;N;$IIMWV,235,R,04.2,N,A*11
1753538412522;N;$IIMWV,210,T,07.0,N,A*11
1753538412590;N;$IIRMB,A,0.16,L,,7       ,,,,,000.30,093,03.4,V,A*77
1753538412724;N;$IIRMC,140005,A,5317.839,N,00605.909,W,03.3,091,260725,01,W,A*00
1753538412790;N;$IIVHW,,,072,M,03.9,N,,*6B
1753538412823;N;$IIVLW,01612,N,003.1,N*55
1753538412879;N;$IIVWR,125,L,04.2,N,,,,*7F
1753538413115;N;$GNRMC,140012.000,A,5317.83944,N,00605.89876,W,3.09,88.71,260725,,*38
1753538413325;N;$IIDPT,014.7,-1.2,*40
1753538413425;N;$IIGLL,5317.839,N,00605.909,W,140005,A,A*43
1753538413458;N;$IIHDG,071,,,01,W*07
1753538413491;N;$IIMTW,+16.0,C*3F
1753538413558;N;$IIMWV,237,R,04.3,N,A*12
1753538413634;N;$IIMWV,209,T,07.1,N,A*18
1753538413724;N;$IIRMB,A,0.16,L,,7       ,,,,,000.30,093,03.4,V,A*77
1753538413849;N;$IIRMC,140005,A,5317.839,N,00605.909,W,03.3,091,260725,01,W,A*00
1753538414116;N;$GNRMC,140013.000,A,5317.83945,N,00605.89726,W,3.23,89.25,260725,,*3A
1753538414325;N;$IIVHW,,,071,M,04.0,N,,*66
1753538414391;N;$IIVLW,01612,N,003.1,N*55
1753538414458;N;$IIVWR,130,L,04.2,N,,,,*7B
1753538414491;N;$IIDPT,014.7,-1.2,*40
1753538414591;N;$IIGLL,5317.839,N,00605.909,W,140005,A,A*43
1753538414624;N;$IIHDG,071,,,01,W*07
1753538414657;N;$IIMTW,+16.0,C*3F
1753538414723;N;$IIMWV,230,R,04.2,N,A*14
1753538414794;N;$IIMWV,210,T,07.1,N,A*10
1753538414884;N;$IIRMB,A,0.16,L,,7       ,,,,,000.30,093,03.4,V,A*77
1753538415126;N;$GPGSA,A,3,04,06,07,09,11,19,20,21,26,29,30,,0.9,0.5,0.7*30
1753538415143;N;$BDGSA,A,3,06,09,14,16,24,26,27,28,33,39,41,42,0.9,0.5,0.7*21
1753538415164;N;$GPGSV,4,1,14,03,07,101,22,04,38,061,33,06,62,204,46,07,30,153,44*70
1753538415180;N;$GPGSV,4,2,14,09,77,090,45,11,55,286,45,19,05,212,48,20,28,290,44*75
1753538415502;N;$GPRMB,A,0.16,L,6,7,5317.82,N,00605.40,W,0.3,93.6,3.2,V,A*7C
1753538415503;N;$GPAPB,A,A,0.16,L,N,V,,126.1,T,7,93.6,T,93.6,T*40
1753538415684;N;$GPGSV,4,3,14,21,33,282,45,26,07,034,35,29,05,343,37,30,07,178,39*7D
1753538415685;N;$GPGSV,4,4,14,34,,,43,36,,,40*7D
1753538415685;N;$BDGSV,5,1,17,05,08,110,,06,21,037,30,09,31,049,33,11,13,170,*67
1753538415685;N;$BDGSV,5,2,17,14,67,071,43,16,21,035,35,24,15,123,36,26,24,075,35*69
1753538415685;N;$BDGSV,5,3,17,27,35,298,46,28,43,240,44,30,,,42,33,83,281,47*57
1753538415685;N;$BDGSV,5,4,17,39,11,027,37,41,31,259,46,42,38,075,38,43,08,186,40*6F
1753538415686;N;$BDGSV,5,5,17,45,08,021,37*50
1753538415687;N;$GNRMC,140014.000,A,5317.83945,N,00605.89579,W,3.15,89.42,260725,,*31
1753538415689;N;$IIRMC,140005,A,5317.839,N,00605.909,W,03.2,089,260725,01,W,A*08
1753538415690;N;$IIVHW,,,071,M,04.0,N,,*66
1753538415691;N;$IIVLW,01612,N,003.1,N*55
1753538415692;N;$IIVWR,123,L,04.0,N,,,,*7B
1753538415693;N;$IIDPT,014.7,-1.2,*40
1753538415817;N;$IIGLL,5317.839,N,00605.909,W,140005,A,A*43
1753538415818;N;$IIHDG,071,,,01,W*07
1753538415925;N;$IIMTW,+16.0,C*3F
1753538415926;N;$IIMWV,237,R,04.0,N,A*11
1753538416322;N;$GNRMC,140015.000,A,5317.83947,N,00605.89433,W,3.20,89.01,260725,,*3C
1753538416322;N;!AIVDO,1,1,,B,B8<Qc=h07oq1FIWWtq`opdW03P06,0*3D
1753538416322;N;!AIVDO,1,1,,A,H8<Qc=h8h4<e<PDE00000000000,2*6D
1753538416323;N;!AIVDO,1,1,,B,H8<Qc=lT?>G100059F6q00102210,0*16
1753538416526;N;$IIMWV,209,T,06.9,N,A*11
1753538416528;N;$IIRMB,A,0.16,L,,7       ,,,,,000.30,093,03.2,V,A*71
1753538416591;N;$IIRMC,140005,A,5317.839,N,00605.909,W,03.2,089,260725,01,W,A*08
1753538416624;N;$IIVHW,,,072,M,04.0,N,,*65
1753538417193;N;$IIVLW,01612,N,003.1,N*55
1753538417194;N;$IIVWR,130,L,03.9,N,,,,*77
1753538417194;N;$IIDPT,014.7,-1.2,*40
1753538417195;N;$IIGLL,5317.839,N,00605.909,W,140005,A,A*43
1753538417197;N;$GNRMC,140016.000,A,5317.83949,N,00605.89285,W,3.16,89.05,260725,,*3B
1753538417325;N;$IIHDG,071,,,01,W*07
1753538417358;N;$IIMTW,+16.0,C*3F
1753538417424;N;$IIMWV,233,R,03.8,N,A*1A
1753538417458;N;$IIMWV,205,T,07.1,N,A*14
1753538417653;N;$IIRMB,A,0.16,L,,7       ,,,,,000.30,093,03.2,V,A*71
1753538417722;N;$IIRMC,140005,A,5317.839,N,00605.909,W,03.2,089,260725,01,W,A*08
1753538417788;N;$IIVHW,,,071,M,04.1,N,,*67
1753538417821;N;$IIVLW,01612,N,003.1,N*55
1753538417893;N;$IIVWR,127,L,03.8,N,,,,*70
1753538418130;N;$GNRMC,140017.000,A,5317.83951,N,00605.89143,W,3.04,88.35,260725,,*3B
1753538418325;N;$IIDPT,014.7,-1.2,*40
1753538418424;N;$IIGLL,5317.839,N,00605.909,W,140005,A,A*43
1753538418457;N;$IIHDG,071,,,01,W*07
1753538418490;N;$IIMTW,+16.0,C*3F
1753538418557;N;$IIMWV,231,R,03.7,N,A*17
1753538418662;N;$IIMWV,205,T,06.9,N,A*1D
1753538418722;N;$IIRMB,A,0.16,L,,7       ,,,,,000.30,093,03.2,V,A*71
1753538418847;N;$IIRMC,140005,A,5317.839,N,00605.909,W,03.2,089,260725,01,W,A*08
1753538419126;N;$GNRMC,140018.000,A,5317.83957,N,00605.89000,W,3.10,87.30,260725,,*3B
1753538419325;N;$IIVHW,,,071,M,03.9,N,,*68
1753538419391;N;$IIVLW,01612,N,003.1,N*55
1753538419457;N;$IIVWR,132,L,03.5,N,,,,*79
1753538419490;N;$IIDPT,014.7,-1.2,*40
1753538419590;N;$IIGLL,5317.839,N,00605.909,W,140005,A,A*43
1753538419623;N;$IIHDG,071,,,01,W*07
1753538419656;N;$IIMTW,+16.0,C*3F
1753538419722;N;$IIMWV,228,R,03.5,N,A*1D
1753538419826;N;$IIMWV,204,T,06.8,N,A*1D
1753538419882;N;$IIRMB,A,0.16,L,,7       ,,,,,000.30,093,03.2,V,A*71
1753538420126;N;$GPGSA,A,3,03,04,06,07,09,11,19,20,21,26,29,30,0.9,0.5,0.7*33
1753538420142;N;$BDGSA,A,3,06,09,14,16,24,26,27,28,33,39,41,42,0.9,0.5,0.7*21
1753538420163;N;$GPGSV,4,1,14,03,07,102,25,04,38,061,33,06,62,203,45,07,30,153,45*71
1753538420180;N;$GPGSV,4,2,14,09,77,090,45,11,55,286,46,19,05,212,48,20,28,290,44*76
1753538420538;N;$GPRMB,A,0.16,L,6,7,5317.82,N,00605.40,W,0.3,93.6,3.1,V,A*7F
1753538420539;N;$GPAPB,A,A,0.16,L,N,V,,126.1,T,7,93.6,T,93.6,T*40
1753538420688;N;$GPGSV,4,3,14,21,33,282,44,26,07,034,35,29,05,343,38,30,07,178,41*7C
1753538420689;N;$GPGSV,4,4,14,34,,,43,36,,,41*7C
1753538420689;N;$BDGSV,5,1,17,05,08,110,,06,21,037,31,09,31,049,33,11,13,170,*66
1753538420689;N;$BDGSV,5,2,17,14,67,071,43,16,21,035,36,24,15,123,36,26,24,074,35*6B
1753538420689;N;$BDGSV,5,3,17,27,35,298,46,28,43,240,46,30,,,44,33,83,282,46*51
1753538420689;N;$BDGSV,5,4,17,39,11,027,37,41,31,259,50,42,38,075,37,43,08,186,40*67
1753538420690;N;$BDGSV,5,5,17,45,08,021,37*50
1753538420691;N;$GNRMC,140019.000,A,5317.83958,N,00605.88853,W,3.17,88.78,260725,,*3E
1753538420692;N;$IIRMC,140005,A,5317.839,N,00605.909,W,03.1,087,260725,01,W,A*05
1753538420693;N;$IIVHW,,,072,M,03.8,N,,*6A
1753538420693;N;$IIVLW,01612,N,003.1,N*55
1753538420694;N;$IIVWR,125,L,03.5,N,,,,*7F
1753538420694;N;$IIDPT,014.7,-1.2,*40
1753538420825;N;$IIGLL,5317.839,N,00605.909,W,140005,A,A*43
1753538420826;N;$IIHDG,072,,,01,W*04
1753538420826;N;$IIMTW,+16.0,C*3F
1753538420925;N;$IIMWV,235,R,03.5,N,A*11
1753538421385;N;$GNRMC,140020.000,A,5317.83965,N,00605.88711,W,3.05,86.15,260725,,*35
1753538421387;N;$IIMWV,206,T,06.4,N,A*13
1753538421424;N;$IIRMB,A,0.16,L,,7       ,,,,,000.30,093,03.1,V,A*72
1753538421590;N;$IIRMC,140005,A,5317.839,N,00605.909,W,03.1,087,260725,01,W,A*05
1753538421841;N;$IIVHW,,,072,M,03.8,N,,*6A
1753538421842;N;$IIVLW,01612,N,003.1,N*55
1753538421843;N;$IIVWR,125,L,03.5,N,,,,*7F
1753538421843;N;$IIDPT,014.7,-1.2,*40
1753538421901;N;$IIGLL,5317.839,N,00605.909,W,140005,A,A*43
1753538422139;N;$GNGGA,140021.000,5317.83964,N,00605.88560,W,1,26,0.5,2.6,M,55.7,M,,*54
1753538422156;N;$GNRMC,140021.000,A,5317.83964,N,00605.88560,W,3.26,89.35,260725,,*3D
1753538422324;N;$IIHDG,072,,,01,W*04
1753538422357;N;$IIMTW,+16.0,C*3F
1753538422533;N;$IIMWV,233,R,03.5,N,A*17
1753538422535;N;$IIMWV,206,T,06.4,N,A*13
1753538422589;N;$IIRMB,A,0.16,L,,7       ,,,,,000.30,093,03.1,V,A*72
1753538422722;N;$IIRMC,140005,A,5317.839,N,00605.909,W,03.1,087,260725,01,W,A*05
1753538422788;N;$IIVHW,,,072,M,04.1,N,,*64
1753538422821;N;$IIVLW,01612,N,003.2,N*56
1753538422877;N;$IIVWR,127,L,03.5,N,,,,*7D
1753538423134;N;$GNRMC,140022.000,A,5317.83966,N,00605.88409,W,3.19,88.76,260725,,*38
1753538423325;N;$IIDPT,014.7,-1.2,*40
1753538423424;N;$IIGLL,5317.839,N,00605.909,W,140005,A,A*43
1753538423457;N;$IIHDG,072,,,01,W*04
1753538423490;N;$IIMTW,+16.0,C*3F
1753538423556;N;$IIMWV,238,R,03.7,N,A*1E
1753538423662;N;$IIMWV,204,T,06.8,N,A*1D
1753538423722;N;$IIRMB,A,0.16,L,,7       ,,,,,000.30,093,03.1,V,A*72
1753538423850;N;$IIRMC,140005,A,5317.839,N,00605.909,W,03.1,087,260725,01,W,A*05
1753538424167;N;$GNRMC,140023.000,A,5317.83970,N,00605.88258,W,3.28,88.09,260725,,*36
1753538424325;N;$IIVHW,,,072,M,04.3,N,,*66
1753538424391;N;$IIVLW,01612,N,003.2,N*56
1753538424457;N;$IIVWR,127,L,03.6,N,,,,*7E
1753538424490;N;$IIDPT,014.7,-1.2,*40
1753538424589;N;$IIGLL,5317.839,N,00605.909,W,140005,A,A*43
1753538424623;N;$IIHDG,072,,,01,W*04
1753538424656;N;$IIMTW,+16.0,C*3F
1753538424722;N;$IIMWV,233,R,03.6,N,A*14
1753538424798;N;$IIMWV,207,T,06.8,N,A*1E
1753538424882;N;$IIRMB,A,0.16,L,,7       ,,,,,000.30,093,03.1,V,A*72
1753538425145;N;$GPGSA,A,3,03,04,06,07,09,11,19,20,21,26,29,30,0.9,0.5,0.7*33
1753538425162;N;$BDGSA,A,3,06,09,14,16,24,26,27,28,33,39,41,42,0.9,0.5,0.7*21
1753538425179;N;$GPGSV,4,1,15,03,07,102,23,04,38,061,33,05,,,40,06,62,203,46*46
1753538425200;N;$GPGSV,4,2,15,07,30,153,43,09,77,090,46,11,55,286,46,19,05,212,48*73
1753538425573;N;$GPRMB,A,0.16,L,6,7,5317.82,N,00605.40,W,0.3,93.6,3.3,V,A*7D
1753538425574;N;$GPAPB,A,A,0.16,L,N,V,,126.1,T,7,93.6,T,93.6,T*40
1753538425698;N;$IIRMC,140005,A,5317.839,N,00605.909,W,03.2,088,260725,01,W,A*09
1753538425698;N;$IIVHW,,,072,M,04.4,N,,*61
1753538425699;N;$IIVLW,01612,N,003.2,N*56
1753538425699;N;$IIVWR,127,L,03.7,N,,,,*7F
1753538425700;N;$IIDPT,014.7,-1.2,*40
1753538425700;N;$GPGSV,4,3,15,20,28,290,44,21,33,282,43,26,07,034,36,29,05,343,40*7A
1753538425701;N;$GPGSV,4,4,15,30,07,178,40,34,,,43,36,,,41*43
1753538425701;N;$BDGSV,5,1,17,05,08,110,,06,21,037,31,09,31,049,32,11,13,170,*67
1753538425701;N;$BDGSV,5,2,17,14,66,071,43,16,21,035,36,24,15,123,36,26,24,074,34*6B
1753538425701;N;$BDGSV,5,3,17,27,35,298,47,28,43,239,45,30,,,44,33,83,282,46*5D
1753538425701;N;$BDGSV,5,4,17,39,11,027,36,41,31,259,50,42,38,075,38,43,08,186,39*67
1753538425702;N;$BDGSV,5,5,17,45,08,021,36*51
1753538425703;N;$GNRMC,140024.000,A,5317.83971,N,00605.88108,W,3.20,88.66,260725,,*37
1753538425829;N;$IIGLL,5317.839,N,00605.909,W,140005,A,A*43
1753538425830;N;$IIHDG,072,,,01,W*04
1753538425831;N;$IIMTW,+16.0,C*3F
1753538425937;N;$IIMWV,233,R,03.7,N,A*15
1753538426365;N;$GNRMC,140025.000,A,5317.83972,N,00605.87955,W,3.31,89.07,260725,,*3C
1753538426366;N;!AIVDO,1,1,,B,B8<Qc=h087q1GS7WtqloHd<03P06,0*4E
1753538426366;N;!AIVDO,1,1,,A,H8<Qc=h8h4<e<PDE00000000000,2*6D
1753538426367;N;!AIVDO,1,1,,B,H8<Qc=lT?>G100059F6q00102210,0*16
1753538426369;N;$IIMWV,204,T,07.2,N,A*16
1753538426521;N;$IIRMB,A,0.16,L,,7       ,,,,,000.30,093,03.3,V,A*70
1753538426590;N;$IIRMC,140005,A,5317.839,N,00605.909,W,03.2,088,260725,01,W,A*09
1753538426622;N;$IIVHW,,,072,M,04.5,N,,*60
1753538426688;N;$IIVLW,01612,N,003.2,N*56
1753538427197;N;$IIVWR,122,L,03.8,N,,,,*75
1753538427197;N;$IIDPT,014.7,-1.2,*40
1753538427198;N;$IIGLL,5317.839,N,00605.909,W,140005,A,A*43
1753538427200;N;$GNRMC,140026.000,A,5317.83972,N,00605.87799,W,3.36,89.44,260725,,*31
1753538427324;N;$IIHDG,073,,,01,W*05
1753538427357;N;$IIMTW,+16.0,C*3F
1753538427423;N;$IIMWV,243,R,03.7,N,A*12
1753538427457;N;$IIMWV,206,T,07.2,N,A*14
1753538427741;N;$IIRMB,A,0.16,L,,7       ,,,,,000.30,093,03.3,V,A*70
1753538427743;N;$IIRMC,140005,A,5317.839,N,00605.909,W,03.2,088,260725,01,W,A*09
1753538427786;N;$IIVHW,,,073,M,04.4,N,,*60
1753538427819;N;$IIVLW,01612,N,003.2,N*56
1753538428113;N;$IIVWR,117,L,03.7,N,,,,*7C
1753538428125;N;$GNRMC,140027.000,A,5317.83977,N,00605.87651,W,3.07,87.92,260725,,*37
1753538428324;N;$IIDPT,014.7,-1.2,*40
1753538428423;N;$IIGLL,5317.839,N,00605.909,W,140005,A,A*43
1753538428456;N;$IIHDG,073,,,01,W*05
1753538428489;N;$IIMTW,+16.0,C*3F
1753538428555;N;$IIMWV,247,R,03.7,N,A*16
1753538428662;N;$IIMWV,208,T,06.8,N,A*11
1753538428720;N;$IIRMB,A,0.16,L,,7       ,,,,,000.30,093,03.3,V,A*70
1753538428845;N;$IIRMC,140005,A,5317.839,N,00605.909,W,03.2,088,260725,01,W,A*09
1753538429151;N;$GNRMC,140028.000,A,5317.83977,N,00605.87501,W,3.25,89.39,260725,,*31
1753538429325;N;$IIVHW,,,072,M,03.9,N,,*6B
1753538429391;N;$IIVLW,01612,N,003.2,N*56
1753538429457;N;$IIVWR,106,L,03.7,N,,,,*7C
1753538429490;N;$IIDPT,014.7,-1.2,*40
1753538429589;N;$IIGLL,5317.839,N,00605.909,W,140005,A,A*43
1753538429622;N;$IIHDG,072,,,01,W*04
1753538429654;N;$IIMTW,+16.0,C*3F
1753538429720;N;$IIMWV,254,R,03.7,N,A*14
1753538429825;N;$IIMWV,211,T,06.5,N,A*14
1753538429881;N;$IIRMB,A,0.16,L,,7       ,,,,,000.30,093,03.3,V,A*70
1753538430127;N;$GPGSA,A,3,04,06,07,09,11,19,20,21,26,29,30,,0.9,0.5,0.7*30
1753538430143;N;$BDGSA,A,3,06,09,14,16,24,26,27,28,33,39,41,42,0.9,0.5,0.7*21
1753538430160;N;$GPGSV,4,1,15,03,07,102,18,04,38,061,33,05,,,39,06,62,203,46*40
1753538430181;N;$GPGSV,4,2,15,07,30,153,43,09,77,090,45,11,55,286,46,19,05,212,49*71
1753538430608;N;$GPRMB,A,0.16,L,6,7,5317.82,N,00605.40,W,0.3,93.6,3.2,V,A*7C
1753538430609;N;$GPAPB,A,A,0.16,L,N,V,,126.1,T,7,93.6,T,93.6,T*40
1753538430668;N;$GPGSV,4,3,15,20,28,290,44,21,33,283,46,26,07,034,36,29,05,343,40*7E
1753538430669;N;$GPGSV,4,4,15,30,07,178,42,34,,,44,36,,,41*46
1753538430669;N;$BDGSV,5,1,17,05,08,110,,06,21,037,32,09,31,049,33,11,13,170,*65
1753538430669;N;$BDGSV,5,2,17,14,66,071,43,16,21,035,37,24,15,123,35,26,24,074,33*6E
1753538430669;N;$BDGSV,5,3,17,27,35,298,46,28,43,239,47,30,,,43,33,83,282,46*59
1753538430669;N;$BDGSV,5,4,17,39,11,027,35,41,31,259,50,42,38,075,38,43,08,186,40*6A
1753538430670;N;$BDGSV,5,5,17,45,08,021,36*51
1753538430671;N;$GNRMC,140029.000,A,5317.83978,N,00605.87351,W,3.20,89.30,260725,,*30
1753538430672;N;$IIRMC,140005,A,5317.839,N,00605.909,W,03.2,089,260725,01,W,A*08
1753538430673;N;$IIVHW,,,072,M,03.8,N,,*6A
1753538430673;N;$IIVLW,01612,N,003.2,N*56
1753538430674;N;$IIVWR,106,L,03.6,N,,,,*7D
1753538430674;N;$IIDPT,014.7,-1.2,*40
1753538430789;N;$IIGLL,5317.839,N,00605.909,W,140005,A,A*43
1753538430790;N;$IIHDG,072,,,01,W*04
1753538430961;N;$IIMTW,+16.0,C*3F
1753538430962;N;$IIMWV,254,R,03.6,N,A*15
1753538431238;N;$GNRMC,140030.000,A,5317.83978,N,00605.87201,W,3.22,90.18,260725,,*3C
1753538431326;N;$IIMWV,215,T,05.8,N,A*1E
1753538431424;N;$IIRMB,A,0.16,L,,7       ,,,,,000.30,093,03.2,V,A*71
1753538431589;N;$IIRMC,140005,A,5317.839,N,00605.909,W,03.2,089,260725,01,W,A*08
1753538431622;N;$IIVHW,,,072,M,03.7,N,,*65
1753538431729;N;$IIVLW,01612,N,003.2,N*56
1753538431754;N;$IIVWR,100,L,03.6,N,,,,*7B
1753538431917;N;$IIDPT,014.7,-1.2,*40
1753538431918;N;$IIGLL,5317.839,N,00605.909,W,140005,A,A*43
1753538432135;N;$GNGGA,140031.000,5317.83980,N,00605.87051,W,1,25,0.5,2.6,M,55.7,M,,*54
1753538432152;N;$GNRMC,140031.000,A,5317.83980,N,00605.87051,W,3.24,89.56,260725,,*39
1753538432328;N;$IIHDG,072,,,01,W*04
1753538432357;N;$IIMTW,+16.0,C*3F
1753538432525;N;$IIMWV,253,R,03.6,N,A*12
1753538432527;N;$IIMWV,218,T,05.6,N,A*1D
1753538432588;N;$IIRMB,A,0.16,L,,7       ,,,,,000.30,093,03.2,V,A*71
1753538432721;N;$IIRMC,140005,A,5317.839,N,00605.909,W,03.2,089,260725,01,W,A*08
1753538432786;N;$IIVHW,,,072,M,03.7,N,,*65
1753538432819;N;$IIVLW,01612,N,003.2,N*56
1753538432875;N;$IIVWR,107,L,03.6,N,,,,*7C
1753538433135;N;$GNRMC,140032.000,A,5317.83985,N,00605.86908,W,3.01,88.32,260725,,*3F
1753538433324;N;$IIDPT,014.7,-1.2,*40
1753538433424;N;$IIGLL,5317.839,N,00605.909,W,140005,A,A*43
1753538433457;N;$IIHDG,072,,,01,W*04
1753538433489;N;$IIMTW,+16.0,C*3F
1753538433555;N;$IIMWV,255,R,03.5,N,A*17
1753538433662;N;$IIMWV,215,T,05.8,N,A*1E
1753538433720;N;$IIRMB,A,0.16,L,,7       ,,,,,000.30,093,03.2,V,A*71
1753538433845;N;$IIRMC,140005,A,5317.839,N,00605.909,W,03.2,089,260725,01,W,A*08
1753538434135;N;$GNRMC,140033.000,A,5317.83993,N,00605.86768,W,3.03,86.80,260725,,*34
1753538434325;N;$IIVHW,,,073,M,03.9,N,,*6A
1753538434390;N;$IIVLW,01612,N,003.2,N*56
1753538434400;N;!AIVDM,1,1,,A,34`a1J11@0OT6`BNP?9=7b;28lhJ,0*2B
1753538434456;N;$IIVWR,113,L,03.5,N,,,,*7A
1753538434489;N;$IIDPT,014.7,-1.2,*40
1753538434588;N;$IIGLL,5317.839,N,00605.909,W,140005,A,A*43
1753538434753;N;$IIHDG,073,,,01,W*05
1753538434754;N;$IIMTW,+16.0,C*3F
1753538434754;N;$IIMWV,247,R,03.5,N,A*14
1753538434802;N;$IIMWV,215,T,05.7,N,A*11
1753538434879;N;$IIRMB,A,0.16,L,,7       ,,,,,000.30,093,03.2,V,A*71
1753538435127;N;$GPGSA,A,3,04,06,07,09,11,19,20,21,26,29,30,,0.9,0.5,0.7*30
1753538435143;N;$BDGSA,A,3,06,09,14,16,24,26,27,28,33,39,41,42,0.9,0.5,0.7*21
1753538435160;N;$GPGSV,4,1,15,03,07,102,21,04,38,061,33,05,,,38,06,62,203,46*4B
1753538435181;N;$GPGSV,4,2,15,07,30,153,44,09,77,090,45,11,55,286,46,19,05,212,47*78
1753538435643;N;$GPRMB,A,0.16,L,6,7,5317.82,N,00605.40,W,0.3,93.6,3.0,V,A*7E
1753538435644;N;$GPAPB,A,A,0.16,L,N,V,,126.1,T,7,93.6,T,93.6,T*40
1753538435674;N;$IIRMC,140005,A,5317.839,N,00605.909,W,03.2,089,260725,01,W,A*08
1753538435675;N;$IIVHW,,,074,M,04.0,N,,*63
1753538435675;N;$IIVLW,01612,N,003.2,N*56
1753538435676;N;$IIVWR,118,L,03.3,N,,,,*77
1753538435676;N;$IIDPT,014.7,-1.2,*40
1753538435677;N;$GPGSV,4,3,15,20,28,290,43,21,33,283,45,26,07,034,36,29,05,343,40*7A
1753538435678;N;$GPGSV,4,4,15,30,07,178,40,34,,,44,36,,,41*44
1753538435678;N;$BDGSV,5,1,17,05,08,110,,06,21,037,32,09,31,049,33,11,13,170,*65
1753538435678;N;$BDGSV,5,2,17,14,66,071,43,16,21,035,36,24,15,123,34,26,24,074,34*69
1753538435678;N;$BDGSV,5,3,17,27,35,298,46,28,43,239,50,30,,,42,33,83,282,47*5F
1753538435678;N;$BDGSV,5,4,17,39,11,027,35,41,31,259,47,42,38,075,39,43,08,186,39*63
1753538435678;N;$BDGSV,5,5,17,45,08,021,36*51
1753538435680;N;$GNRMC,140034.000,A,5317.83995,N,00605.86624,W,3.07,88.47,260725,,*3D
1753538435809;N;$IIGLL,5317.839,N,00605.909,W,140005,A,A*43
1753538435810;N;$IIHDG,074,,,01,W*02
1753538435819;N;$IIMTW,+16.0,C*3F
1753538435913;N;$IIMWV,242,R,03.3,N,A*17
1753538436349;N;$GNRMC,140035.000,A,5317.83994,N,00605.86480,W,3.10,90.05,260725,,*38
1753538436350;N;!AIVDO,1,1,,A,B8<Qc=h07Wq1He7Wtqto@dA03P06,0*76
1753538436351;N;!AIVDO,1,1,,B,H8<Qc=h8h4<e<PDE00000000000,2*6E
1753538436351;N;!AIVDO,1,1,,A,H8<Qc=lT?>G100059F6q00102210,0*15
1753538436353;N;$IIMWV,208,T,06.2,N,A*1B
1753538436425;N;$IIRMB,A,0.16,L,,7       ,,,,,000.30,093,03.0,V,A*73
1753538436813;N;$IIRMC,140005,A,5317.839,N,00605.909,W,03.2,089,260725,01,W,A*08
1753538436814;N;$IIVHW,,,074,M,04.0,N,,*63
1753538436815;N;$IIVLW,01612,N,003.2,N*56
1753538436815;N;$IIVWR,119,L,03.2,N,,,,*77
1753538436816;N;$IIDPT,014.7,-1.2,*40
1753538436953;N;$IIGLL,5317.839,N,00605.909,W,140005,A,A*43
1753538437145;N;$GNRMC,140036.000,A,5317.83995,N,00605.86340,W,2.94,89.18,260725,,*38
1753538437324;N;$IIHDG,075,,,01,W*03
1753538437358;N;$IIMTW,+16.0,C*3F
1753538437461;N;$IIMWV,246,R,03.1,N,A*11
1753538437462;N;$IIMWV,206,T,06.1,N,A*16
1753538437589;N;$IIRMB,A,0.16,L,,7       ,,,,,000.30,093,03.0,V,A*73
1753538437722;N;$IIRMC,140005,A,5317.839,N,00605.909,W,03.2,089,260725,01,W,A*08
1753538437788;N;$IIVHW,,,075,M,04.0,N,,*62
1753538437821;N;$IIVLW,01612,N,003.2,N*56
1753538437877;N;$IIVWR,114,L,03.1,N,,,,*79
1753538438165;N;$GNRMC,140037.000,A,5317.83996,N,00605.86198,W,3.03,89.76,260725,,*3A
1753538438324;N;$IIDPT,014.7,-1.2,*40
1753538438424;N;$IIGLL,5317.839,N,00605.909,W,140005,A,A*43
1753538438457;N;$IIHDG,076,,,01,W*00
1753538438490;N;$IIMTW,+16.0,C*3F
1753538438556;N;$IIMWV,242,R,03.0,N,A*14
1753538438662;N;$IIMWV,208,T,05.9,N,A*13
1753538438722;N;$IIRMB,A,0.16,L,,7       ,,,,,000.30,093,03.0,V,A*73
1753538438847;N;$IIRMC,140005,A,5317.839,N,00605.909,W,03.2,089,260725,01,W,A*08
1753538439165;N;$GNRMC,140038.000,A,5317.83990,N,00605.86055,W,3.08,92.33,260725,,*33
1753538439325;N;$IIVHW,,,076,M,03.8,N,,*6E
1753538439391;N;$IIVLW,01612,N,003.2,N*56
1753538439457;N;$IIVWR,115,L,03.0,N,,,,*79
1753538439490;N;$IIDPT,014.7,-1.2,*40
1753538439589;N;$IIGLL,5317.839,N,00605.909,W,140005,A,A*43
1753538439622;N;$IIHDG,076,,,01,W*00
1753538439656;N;$IIMTW,+16.0,C*3F
1753538439722;N;$IIMWV,245,R,03.0,N,A*13
1753538439798;N;$IIMWV,206,T,05.9,N,A*1D
1753538439881;N;$IIRMB,A,0.16,L,,7       ,,,,,000.30,093,03.0,V,A*73
1753538439914;N;!AIVDM,1,1,,B,E>jQM6jVbSV4W9h64ST:47baRP0Oj5rR??P7030HHKkf@0,4*2C
1753538440141;N;$GPGSA,A,3,03,04,06,07,09,11,19,20,21,26,29,30,0.9,0.5,0.7*33
1753538440158;N;$BDGSA,A,3,06,09,14,16,24,26,27,28,33,39,41,42,0.9,0.5,0.7*21
1753538440175;N;$GPGSV,4,1,15,03,07,102,21,04,38,061,37,05,,,39,06,62,203,47*4F
1753538440196;N;$GPGSV,4,2,15,07,30,153,44,09,77,089,45,11,55,286,46,19,05,212,48*7F
1753538440678;N;$GPRMB,A,0.16,L,6,7,5317.82,N,00605.40,W,0.3,93.6,3.1,V,A*7F
1753538440680;N;$GPAPB,A,A,0.16,L,N,V,,126.1,T,7,93.6,T,93.6,T*40
1753538440696;N;$GPGSV,4,3,15,20,28,290,45,21,33,283,46,26,07,034,35,29,06,343,41*7E
1753538440697;N;$GPGSV,4,4,15,30,07,178,39,34,,,44,36,,,40*4B
1753538440697;N;$BDGSV,5,1,17,05,08,110,,06,21,037,33,09,31,049,32,11,13,170,*65
1753538440697;N;$BDGSV,5,2,17,14,66,071,43,16,21,035,38,24,15,123,38,26,24,074,29*67
1753538440697;N;$BDGSV,5,3,17,27,35,298,48,28,43,239,44,30,,,42,33,83,282,46*55
1753538440697;N;$BDGSV,5,4,17,39,11,027,37,41,31,259,51,42,38,075,35,43,08,186,42*66
1753538440698;N;$BDGSV,5,5,17,45,08,021,38*5F
1753538440699;N;$GNRMC,140039.000,A,5317.83984,N,00605.85912,W,3.09,93.34,260725,,*39
1753538440701;N;$IIRMC,140005,A,5317.839,N,00605.909,W,03.0,092,260725,01,W,A*00
1753538440702;N;$IIVHW,,,077,M,03.6,N,,*61
1753538440703;N;$IIVLW,01612,N,003.2,N*56
1753538440704;N;$IIVWR,108,L,02.9,N,,,,*7D
1753538440705;N;$IIDPT,014.7,-1.2,*40
1753538440829;N;$IIGLL,5317.839,N,00605.909,W,140005,A,A*43
1753538440830;N;$IIHDG,077,,,01,W*01
1753538440830;N;$IIMTW,+16.0,C*3F
1753538440937;N;$IIMWV,252,R,02.9,N,A*1D
1753538441418;N;$GNRMC,140040.000,A,5317.83981,N,00605.85777,W,2.83,92.40,260725,,*3E
1753538441419;N;$IIMWV,211,T,05.2,N,A*10
1753538441424;N;$IIRMB,A,0.16,L,,7       ,,,,,000.30,093,03.1,V,A*72
1753538441590;N;$IIRMC,140005,A,5317.839,N,00605.909,W,03.0,092,260725,01,W,A*00
1753538441877;N;$IIVHW,,,078,M,03.6,N,,*6E
1753538441878;N;$IIVLW,01612,N,003.2,N*56
1753538441879;N;$IIVWR,105,L,02.9,N,,,,*70
1753538441879;N;$IIDPT,014.7,-1.2,*40
1753538441881;N;$IIGLL,5317.839,N,00605.909,W,140005,A,A*43
1753538442154;N;$GNGGA,140041.000,5317.83977,N,00605.85642,W,1,26,0.5,2.8,M,55.7,M,,*50
1753538442171;N;$GNRMC,140041.000,A,5317.83977,N,00605.85642,W,2.93,93.00,260725,,*35
1753538442324;N;$IIHDG,078,,,01,W*0E
1753538442357;N;$IIMTW,+16.0,C*3F
1753538442585;N;$IIMWV,259,R,03.1,N,A*1F
1753538442587;N;$IIMWV,213,T,05.1,N,A*11
1753538442589;N;$IIRMB,A,0.16,L,,7       ,,,,,000.30,093,03.1,V,A*72
1753538442668;N;send staus
1753538442761;N;$IIRMC,140005,A,5317.839,N,00605.909,W,03.0,092,260725,01,W,A*00
1753538442788;N;$IIVHW,,,078,M,03.6,N,,*6E
1753538443033;N;$IIVLW,01612,N,003.2,N*56
1753538443034;N;$IIVWR,101,L,03.1,N,,,,*7D
1753538443144;N;$GNRMC,140042.000,A,5317.83967,N,00605.85502,W,3.02,95.25,260725,,*38
1753538443325;N;$IIDPT,014.7,-1.2,*40
1753538443426;N;$IIGLL,5317.839,N,00605.909,W,140005,A,A*43
1753538443458;N;$IIHDG,079,,,01,W*0F
1753538443490;N;$IIMTW,+16.0,C*3F
1753538443556;N;$IIMWV,259,R,03.0,N,A*1E
1753538443662;N;$IIMWV,216,T,05.0,N,A*15
1753538443722;N;$IIRMB,A,0.16,L,,7       ,,,,,000.30,093,03.1,V,A*72
1753538443847;N;$IIRMC,140005,A,5317.839,N,00605.909,W,03.0,092,260725,01,W,A*00
1753538444162;N;$GNRMC,140043.000,A,5317.83959,N,00605.85366,W,2.91,95.46,260725,,*3E
1753538444325;N;$IIVHW,,,080,M,03.5,N,,*6A
1753538444391;N;$IIVLW,01612,N,003.2,N*56
1753538444457;N;$IIVWR,100,L,03.0,N,,,,*7D
1753538444490;N;$IIDPT,014.7,-1.2,*40
1753538444590;N;$IIGLL,5317.839,N,00605.909,W,140005,A,A*43
1753538444623;N;$IIHDG,080,,,01,W*09
1753538444656;N;$IIMTW,+16.0,C*3F
1753538444722;N;$IIMWV,260,R,03.0,N,A*14
1753538444826;N;$IIMWV,215,T,05.0,N,A*16
1753538444882;N;$IIRMB,A,0.16,L,,7       ,,,,,000.30,093,03.1,V,A*72
1753538445155;N;$GPGSA,A,3,03,04,06,07,09,11,19,20,21,26,29,30,0.9,0.5,0.7*33
1753538445171;N;$BDGSA,A,3,06,09,14,16,24,26,27,28,33,39,41,42,0.9,0.5,0.7*21
1753538445188;N;$GPGSV,4,1,15,03,07,102,22,04,38,061,38,05,,,38,06,62,203,46*43
1753538445209;N;$GPGSV,4,2,15,07,30,153,45,09,77,089,45,11,55,286,46,19,05,212,47*71
1753538445705;N;$IIRMC,140005,A,5317.839,N,00605.909,W,02.9,095,260725,01,W,A*0F
1753538445706;N;$IIVHW,,,080,M,03.5,N,,*6A
1753538445707;N;$IIVLW,01612,N,003.2,N*56
1753538445708;N;$IIVWR,100,L,02.9,N,,,,*75
1753538445708;N;$IIDPT,014.7,-1.2,*40
1753538445709;N;$GPGSV,4,3,15,20,28,290,46,21,33,283,47,26,07,034,33,29,06,343,41*7A
1753538445709;N;$GPGSV,4,4,15,30,07,178,39,34,,,44,36,,,40*4B
1753538445710;N;$BDGSV,5,1,17,05,08,110,,06,21,037,34,09,31,049,34,11,13,170,*64
1753538445710;N;$BDGSV,5,2,17,14,66,071,43,16,21,035,36,24,15,123,31,26,24,074,29*60
1753538445710;N;$BDGSV,5,3,17,27,35,298,47,28,43,239,41,30,,,40,33,83,282,46*5D
1753538445710;N;$BDGSV,5,4,17,39,11,027,37,41,31,259,46,42,38,075,32,43,08,186,38*6A
1753538445710;N;$BDGSV,5,5,17,45,08,021,39*5E
1753538445711;N;$GNRMC,140044.000,A,5317.83948,N,00605.85228,W,2.99,96.78,260725,,*34
1753538445714;N;$GPRMB,A,0.16,L,6,7,5317.82,N,00605.40,W,0.3,93.6,2.9,V,A*76
1753538445717;N;$GPAPB,A,A,0.16,L,N,V,,126.1,T,7,93.6,T,93.6,T*40
1753538445845;N;$IIGLL,5317.839,N,00605.909,W,140005,A,A*43
1753538445846;N;$IIHDG,080,,,01,W*09
1753538445846;N;$IIMTW,+16.0,C*3F
1753538446261;N;$IIMWV,260,R,02.9,N,A*1C
1753538446263;N;$GNRMC,140045.000,A,5317.83935,N,00605.85094,W,2.94,98.18,260725,,*3F
1753538446263;N;!AIVDO,1,1,,B,B8<Qc=h07Gq1Ik7Wtq`tLhF03P06,0*62
1753538446264;N;!AIVDO,1,1,,A,H8<Qc=h8h4<e<PDE00000000000,2*6D
1753538446264;N;!AIVDO,1,1,,B,H8<Qc=lT?>G100059F6q00102210,0*16
1753538446458;N;$IIMWV,216,T,04.8,N,A*1C
1753538446459;N;$IIRMB,A,0.16,L,,7       ,,,,,000.30,093,02.9,V,A*7B
1753538446591;N;$IIRMC,140005,A,5317.839,N,00605.909,W,02.9,095,260725,01,W,A*0F
1753538446624;N;$IIVHW,,,080,M,03.5,N,,*6A
1753538447173;N;$IIVLW,01612,N,003.2,N*56
1753538447174;N;$IIVWR,098,L,02.8,N,,,,*74
1753538447174;N;$IIDPT,014.7,-1.2,*40
1753538447175;N;$IIGLL,5317.839,N,00605.909,W,140005,A,A*43
1753538447177;N;$GNRMC,140046.000,A,5317.83923,N,00605.84962,W,2.82,98.19,260725,,*3C
1753538447325;N;$IIHDG,080,,,01,W*09
1753538447358;N;$IIMTW,+16.0,C*3F
1753538447424;N;$IIMWV,260,R,02.7,N,A*12
1753538447458;N;$IIMWV,215,T,04.7,N,A*10
1753538447590;N;$IIRMB,A,0.16,L,,7       ,,,,,000.30,093,02.9,V,A*7B
1753538447724;N;$IIRMC,140005,A,5317.839,N,00605.909,W,02.9,095,260725,01,W,A*0F
1753538447790;N;$IIVHW,,,080,M,03.5,N,,*6A
1753538447823;N;$IIVLW,01612,N,003.2,N*56
1753538447881;N;$IIVWR,100,L,02.7,N,,,,*7B
1753538448168;N;$GNRMC,140047.000,A,5317.83916,N,00605.84831,W,2.83,97.00,260725,,*3A
1753538448325;N;$IIDPT,014.7,-1.2,*40
1753538448425;N;$IIGLL,5317.839,N,00605.909,W,140005,A,A*43
1753538448458;N;$IIHDG,081,,,01,W*08
1753538448491;N;$IIMTW,+16.0,C*3F
1753538448557;N;$IIMWV,266,R,02.6,N,A*15
1753538448636;N;$IIMWV,213,T,04.7,N,A*16
1753538448724;N;$IIRMB,A,0.16,L,,7       ,,,,,000.30,093,02.9,V,A*7B
1753538448849;N;$IIRMC,140005,A,5317.839,N,00605.909,W,02.9,095,260725,01,W,A*0F
1753538449155;N;$GNRMC,140048.000,A,5317.83902,N,00605.84696,W,2.89,99.24,260725,,*31
1753538449325;N;$IIVHW,,,081,M,03.4,N,,*6A
1753538449391;N;$IIVLW,01612,N,003.2,N*56
1753538449458;N;$IIVWR,104,L,02.6,N,,,,*7E
1753538449491;N;$IIDPT,014.7,-1.2,*40
1753538449591;N;$IIGLL,5317.839,N,00605.909,W,140005,A,A*43
1753538449624;N;$IIHDG,081,,,01,W*08
1753538449657;N;$IIMTW,+16.0,C*3F
1753538449724;N;$IIMWV,256,R,02.6,N,A*16
1753538449797;N;$IIMWV,216,T,04.4,N,A*10
1753538449884;N;$IIRMB,A,0.16,L,,7       ,,,,,000.30,093,02.9,V,A*7B
1753538450150;N;$GPGSA,A,3,03,04,06,07,09,11,19,20,21,26,29,30,0.9,0.5,0.7*33
1753538450166;N;$BDGSA,A,3,06,09,14,16,24,26,27,28,33,39,41,42,0.9,0.5,0.7*21
1753538450183;N;$GPGSV,4,1,15,03,07,102,20,04,38,061,37,05,,,40,06,62,203,46*41
1753538450204;N;$GPGSV,4,2,15,07,30,153,44,09,77,089,45,11,55,286,46,19,05,212,47*70
1753538450700;N;$GPGSV,4,3,15,20,28,290,45,21,33,283,45,26,07,034,33,29,06,343,40*7A
1753538450701;N;$GPGSV,4,4,15,30,07,178,39,34,,,44,36,,,38*44
1753538450702;N;$BDGSV,5,1,17,05,08,110,,06,21,037,33,09,31,049,35,11,13,170,*62
1753538450702;N;$BDGSV,5,2,17,14,66,071,43,16,21,035,34,24,15,123,30,26,24,074,27*6D
1753538450702;N;$BDGSV,5,3,17,27,35,298,49,28,43,239,46,30,,,42,33,83,283,47*56
1753538450702;N;$BDGSV,5,4,17,39,11,027,36,41,31,259,51,42,37,075,32,43,08,186,39*63
1753538450702;N;$BDGSV,5,5,17,45,08,021,38*5F
1753538450703;N;$GNRMC,140049.000,A,5317.83886,N,00605.84563,W,2.78,99.99,260725,,*3C
1753538450705;N;$IIRMC,140005,A,5317.839,N,00605.909,W,02.8,099,260725,01,W,A*02
1753538450705;N;$IIVHW,,,082,M,03.5,N,,*68
1753538450706;N;$IIVLW,01612,N,003.2,N*56
1753538450706;N;$IIVWR,103,L,02.5,N,,,,*7A
1753538450707;N;$IIDPT,014.9,-1.2,*4E
1753538450724;N;$IIGLL,5317.839,N,00605.909,W,140005,A,A*43
1753538450751;N;$GPRMB,A,0.16,L,6,7,5317.82,N,00605.40,W,0.3,93.6,2.8,V,A*77
1753538450754;N;$GPAPB,A,A,0.16,L,N,V,,126.1,T,7,93.6,T,93.6,T*40
1753538451177;N;$IIHDG,082,,,01,W*0B
1753538451177;N;$IIMTW,+16.0,C*3F
1753538451178;N;$IIMWV,257,R,02.5,N,A*14
1753538451179;N;$GNRMC,140050.000,A,5317.83875,N,00605.84435,W,2.72,98.58,260725,,*3C
1753538451326;N;$IIMWV,210,T,04.7,N,A*15
1753538451425;N;$IIRMB,A,0.16,L,,7       ,,,,,000.30,093,02.9,V,A*7B
1753538451592;N;$IIRMC,140005,A,5317.839,N,00605.909,W,02.8,099,260725,01,W,A*02
1753538451624;N;$IIVHW,,,082,M,03.3,N,,*6E
1753538451925;N;$IIVLW,01612,N,003.2,N*56
1753538451925;N;$IIVWR,111,L,02.5,N,,,,*79
1753538451926;N;$IIDPT,014.9,-1.2,*4E
1753538451927;N;$IIGLL,5317.839,N,00605.909,W,140005,A,A*43
1753538452144;N;$GNGGA,140051.000,5317.83857,N,00605.84303,W,1,26,0.5,2.8,M,55.7,M,,*53
1753538452162;N;$GNRMC,140051.000,A,5317.83857,N,00605.84303,W,2.82,101.45,260725,,*0D
1753538452325;N;$IIHDG,082,,,01,W*0B
1753538452358;N;$IIMTW,+16.0,C*3F
1753538452577;N;$IIMWV,249,R,02.6,N,A*18
1753538452578;N;$IIMWV,209,T,04.7,N,A*1D
1753538452591;N;$IIRMB,A,0.16,L,,7       ,,,,,000.30,093,02.9,V,A*7B
1753538452723;N;$IIRMC,140005,A,5317.839,N,00605.909,W,02.8,099,260725,01,W,A*02
1753538452790;N;$IIVHW,,,082,M,03.0,N,,*6D
1753538452823;N;$IIVLW,01612,N,003.2,N*56
1753538453053;N;$IIVWR,111,L,02.6,N,,,,*7A
1753538453143;N;$GNRMC,140052.000,A,5317.83841,N,00605.84173,W,2.79,101.01,260725,,*08
1753538453325;N;$IIDPT,014.9,-1.2,*4E
1753538453425;N;$IIGLL,5317.839,N,00605.909,W,140005,A,A*43
1753538453458;N;$IIHDG,082,,,01,W*0B
1753538453491;N;$IIMTW,+16.0,C*3F
1753538453558;N;$IIMWV,251,R,02.6,N,A*11
1753538453662;N;$IIMWV,212,T,04.5,N,A*15
1753538453723;N;$IIRMB,A,0.16,L,,7       ,,,,,000.30,093,02.9,V,A*7B
1753538453849;N;$IIRMC,140005,A,5317.839,N,00605.909,W,02.8,099,260725,01,W,A*02
1753538454142;N;$GNRMC,140053.000,A,5317.83826,N,00605.84046,W,2.73,100.80,260725,,*0D
1753538454324;N;$IIVHW,,,082,M,03.0,N,,*6D
1753538454390;N;$IIVLW,01612,N,003.2,N*56
1753538454456;N;$IIVWR,108,L,02.5,N,,,,*71
1753538454490;N;$IIDPT,014.9,-1.2,*4E
1753538454589;N;$IIGLL,5317.839,N,00605.909,W,140005,A,A*43
1753538454622;N;$IIHDG,082,,,01,W*0B
1753538454656;N;$IIMTW,+16.0,C*3F
1753538454722;N;$IIMWV,252,R,02.5,N,A*11
1753538454798;N;$IIMWV,213,T,04.4,N,A*15
1753538455060;N;!AIVDM,1,1,,A,E>jQM6jVbSV4W9h64ST:47baRP0Oj5rR??P7030HHKs>@0,4*6F
1753538455088;N;!AIVDM,1,1,,A,6>jQM6h0V:C0>db7HSR8P600,0*31
1753538455134;N;$GPGSA,A,3,03,04,06,07,09,11,19,20,21,26,29,30,0.9,0.5,0.7*33
1753538455151;N;$BDGSA,A,3,06,09,14,16,24,26,27,28,33,39,41,42,0.9,0.5,0.7*21
1753538455560;N;$GPGSV,4,1,15,03,06,102,25,04,38,061,38,05,,,44,06,62,203,46*4E
1753538455560;N;$GPGSV,4,2,15,07,30,153,43,09,77,089,45,11,55,286,46,19,05,212,48*78
1753538455561;N;$GPGSV,4,3,15,20,28,290,46,21,33,283,47,26,07,034,34,29,06,343,39*72
1753538455562;N;$GPGSV,4,4,15,30,07,178,38,34,,,43,36,,,38*42
1753538455562;N;$BDGSV,5,1,17,05,08,110,,06,21,037,33,09,31,049,36,11,13,170,*61
1753538455562;N;$BDGSV,5,2,17,14,66,071,43,16,21,035,33,24,15,123,29,26,24,074,28*6D
1753538455562;N;$BDGSV,5,3,17,27,35,298,47,28,43,239,45,30,,,43,33,83,283,46*5B
1753538455562;N;$BDGSV,5,4,17,39,11,027,35,41,31,259,48,42,37,075,32,43,08,186,39*68
1753538455563;N;$BDGSV,5,5,17,45,08,021,39*5E
1753538455564;N;$GNRMC,140054.000,A,5317.83809,N,00605.83915,W,2.75,101.53,260725,,*06
1753538455565;N;$IIRMC,140005,A,5317.839,N,00605.909,W,02.7,100,260725,01,W,A*0C
1753538455566;N;$IIVHW,,,083,M,03.0,N,,*6C
1753538455566;N;$IIVLW,01612,N,003.2,N*56
1753538455697;N;$IIVWR,109,L,02.7,N,,,,*72
1753538455698;N;$IIDPT,014.9,-1.2,*4E
1753538455723;N;$IIGLL,5317.839,N,00605.909,W,140005,A,A*43
1753538455757;N;$IIHDG,083,,,01,W*0A
1753538455788;N;$GPRMB,A,0.16,L,6,7,5317.82,N,00605.40,W,0.3,93.6,2.7,V,A*78
1753538455789;N;$GPAPB,A,A,0.16,L,N,V,,126.1,T,7,93.6,T,93.6,T*40
1753538456333;N;$IIMTW,+16.0,C*3F
1753538456334;N;$IIMWV,251,R,02.7,N,A*10
1753538456335;N;$IIMWV,213,T,04.6,N,A*17
1753538456336;N;$GNRMC,140055.000,A,5317.83796,N,00605.83788,W,2.69,100.03,260725,,*0D
1753538456337;N;!AIVDO,1,1,,A,B8<Qc=h06oq1JlWWtphwLjs03P06,0*11
1753538456337;N;!AIVDO,1,1,,B,H8<Qc=h8h4<e<PDE00000000000,2*6E
1753538456338;N;!AIVDO,1,1,,A,H8<Qc=lT?>G100059F6q00102210,0*15
1753538456461;N;$IIRMC,140005,A,5317.839,N,00605.909,W,02.7,100,260725,01,W,A*0C
1753538456573;N;$IIVHW,,,082,M,03.0,N,,*6D
1753538456637;N;$IIVLW,01612,N,003.2,N*56
1753538456638;N;$IIVWR,110,L,02.8,N,,,,*75
1753538456733;N;$IIDPT,014.8,-1.2,*4F
1753538456969;N;$IIGLL,5317.839,N,00605.909,W,140005,A,A*43
1753538456970;N;$IIHDG,082,,,01,W*0B
1753538456970;N;$IIMTW,+16.0,C*3F
1753538457146;N;$GNRMC,140056.000,A,5317.83779,N,00605.83664,W,2.69,102.39,260725,,*07
1753538457324;N;$IIMWV,252,R,02.8,N,A*1C
1753538457391;N;$IIMWV,214,T,04.6,N,A*10
1753538457490;N;$IIRMB,A,0.16,L,,7       ,,,,,000.30,093,02.7,V,A*75
1753538457622;N;$IIRMC,140005,A,5317.839,N,00605.909,W,02.7,100,260725,01,W,A*0C
1753538457689;N;$IIVHW,,,083,M,03.2,N,,*6E
1753538457755;N;$IIVLW,01612,N,003.2,N*56
1753538457788;N;$IIVWR,108,L,02.8,N,,,,*7C
1753538457929;N;$IIDPT,014.8,-1.2,*4F
1753538458151;N;$GNRMC,140057.000,A,5317.83759,N,00605.83536,W,2.70,103.03,260725,,*00
1753538458357;N;$IIGLL,5317.839,N,00605.909,W,140005,A,A*43
1753538458424;N;$IIHDG,083,,,01,W*0A
1753538458457;N;$IIMTW,+16.0,C*3F
1753538458490;N;$IIMWV,247,R,02.9,N,A*19
1753538458562;N;$IIMWV,213,T,04.7,N,A*16
1753538458655;N;$IIRMB,A,0.16,L,,7       ,,,,,000.30,093,02.7,V,A*75
1753538458821;N;$IIRMC,140005,A,5317.839,N,00605.909,W,02.7,100,260725,01,W,A*0C
1753538458856;N;$IIVHW,,,083,M,03.4,N,,*68
1753538459150;N;$GNRMC,140058.000,A,5317.83744,N,00605.83409,W,2.70,101.78,260725,,*00
1753538459324;N;$IIVLW,01612,N,003.2,N*56
1753538459390;N;$IIVWR,112,L,03.0,N,,,,*7E
1753538459423;N;$IIDPT,014.8,-1.2,*4F
1753538459523;N;$IIGLL,5317.839,N,00605.909,W,140005,A,A*43
1753538459589;N;$IIHDG,085,,,01,W*0C
1753538459622;N;$IIMTW,+16.0,C*3F
1753538459655;N;$IIMWV,248,R,03.0,N,A*1E
1753538459730;N;$IIMWV,210,T,05.2,N,A*11
1753538459823;N;$IIRMB,A,0.16,L,,7       ,,,,,000.30,093,02.7,V,A*75
1753538460145;N;$GPGSA,A,3,03,04,06,07,09,11,19,20,21,26,29,30,0.9,0.5,0.7*33
1753538460161;N;$BDGSA,A,3,06,09,14,16,24,26,27,28,33,39,41,42,0.9,0.5,0.7*21
1753538460178;N;$GPGSV,4,1,15,03,06,102,23,04,38,061,37,05,,,39,06,62,203,46*4D
1753538460199;N;$GPGSV,4,2,15,07,30,153,42,09,77,089,45,11,55,286,46,19,05,212,47*76
1753538460693;N;$GPGSV,4,3,15,20,28,290,45,21,33,283,47,26,07,034,35,29,06,343,39*70
1753538460694;N;$GPGSV,4,4,15,30,07,178,37,34,,,43,36,,,38*4D
1753538460694;N;$BDGSV,5,1,17,05,08,110,,06,21,037,31,09,31,049,37,11,13,170,*62
1753538460694;N;$BDGSV,5,2,17,14,66,071,43,16,21,035,34,24,15,123,32,26,24,074,30*69
1753538460694;N;$BDGSV,5,3,17,27,35,298,47,28,43,239,46,30,,,42,33,84,283,47*5F
1753538460694;N;$BDGSV,5,4,17,39,11,027,36,41,31,260,47,42,37,075,34,43,08,186,40*66
1753538460695;N;$BDGSV,5,5,17,45,08,021,38*5F
1753538460696;N;$GNRMC,140059.000,A,5317.83727,N,00605.83282,W,2.69,102.63,260725,,*00
1753538460698;N;$IIRMC,140005,A,5317.839,N,00605.909,W,02.7,101,260725,01,W,A*0D
1753538460699;N;$IIVHW,,,085,M,03.5,N,,*6F
1753538460699;N;$IIVLW,01612,N,003.2,N*56
1753538460700;N;$IIVWR,115,L,03.2,N,,,,*7B
1753538460701;N;$IIDPT,014.8,-1.2,*4F
1753538460828;N;$GPRMB,A,0.16,L,6,7,5317.82,N,00605.40,W,0.3,93.6,2.7,V,A*78
1753538460829;N;$GPAPB,A,A,0.16,L,N,V,,126.1,T,7,93.6,T,93.6,T*40
1753538460845;N;$IIGLL,5317.839,N,00605.909,W,140005,A,A*43
1753538460846;N;$IIHDG,085,,,01,W*0C
1753538460847;N;$IIMTW,+16.0,C*3F
1753538461465;N;$IIMWV,245,R,03.2,N,A*11
1753538461467;N;$IIMWV,211,T,05.6,N,A*14
1753538461467;N;$IIRMB,A,0.16,L,,7       ,,,,,000.30,093,02.7,V,A*75
1753538461468;N;stop_pwm
1753538461468;N;start_pwm
1753538461469;N;$GNRMC,140100.000,A,5317.83708,N,00605.83159,W,2.61,104.03,260725,,*0D
1753538461661;N;$IIRMC,140005,A,5317.839,N,00605.909,W,02.7,101,260725,01,W,A*0D
1753538461662;N;$IIVHW,,,085,M,03.5,N,,*6F
1753538461689;N;$IIVLW,01612,N,003.2,N*56
1753538461755;N;$IIVWR,114,L,03.4,N,,,,*7C
1753538462161;N;$IIDPT,014.8,-1.2,*4F
1753538462162;N;$IIGLL,5317.839,N,00605.909,W,140005,A,A*43
1753538462163;N;$GNGGA,140101.000,5317.83691,N,00605.83033,W,1,26,0.5,2.9,M,55.7,M,,*55
1753538462165;N;$GNRMC,140101.000,A,5317.83691,N,00605.83033,W,2.65,103.02,260725,,*02
1753538462337;N;$IIHDG,085,,,01,W*0C
1753538462357;N;$IIMTW,+16.0,C*3F
1753538462424;N;$IIMWV,240,R,03.5,N,A*13
1753538462746;N;$IIMWV,212,T,05.6,N,A*17
1753538462747;N;$IIRMB,A,0.16,L,,7       ,,,,,000.30,093,02.7,V,A*75
1753538462749;N;$IIRMC,140005,A,5317.839,N,00605.909,W,02.7,101,260725,01,W,A*0D
1753538462788;N;$IIVHW,,,085,M,03.2,N,,*68
1753538462925;N;$IIVLW,01612,N,003.2,N*56
1753538462926;N;$IIVWR,120,L,03.5,N,,,,*7A
1753538463168;N;$GNRMC,140102.000,A,5317.83667,N,00605.82903,W,2.70,106.31,260725,,*02
1753538463337;N;$IIDPT,014.9,-1.2,*4E
1753538463424;N;$IIGLL,5317.839,N,00605.909,W,140005,A,A*43
1753538463457;N;$IIHDG,085,,,01,W*0C
1753538463490;N;$IIMTW,+16.0,C*3F
1753538463556;N;$IIMWV,238,R,03.6,N,A*1F
1753538463662;N;$IIMWV,212,T,05.7,N,A*16
1753538463722;N;$IIRMB,A,0.16,L,,7       ,,,,,000.30,093,02.7,V,A*75
1753538463847;N;$IIRMC,140005,A,5317.839,N,00605.909,W,02.7,101,260725,01,W,A*0D
1753538464149;N;$GNRMC,140103.000,A,5317.83646,N,00605.82778,W,2.70,105.00,260725,,*03
1753538464325;N;$IIVHW,,,084,M,02.9,N,,*63
1753538464391;N;$IIVLW,01612,N,003.2,N*56
1753538464457;N;$IIVWR,119,L,03.7,N,,,,*72
1753538464490;N;$IIDPT,014.9,-1.2,*4E
1753538464589;N;$IIGLL,5317.839,N,00605.909,W,140005,A,A*43
1753538464623;N;$IIHDG,084,,,01,W*0D
1753538464656;N;$IIMTW,+16.0,C*3F
1753538464722;N;$IIMWV,241,R,03.7,N,A*10
1753538464798;N;$IIMWV,212,T,05.7,N,A*16
1753538464881;N;$IIRMB,A,0.16,L,,7       ,,,,,000.30,093,02.7,V,A*75
1753538465152;N;$GPGSA,A,3,03,04,06,07,09,11,19,20,21,26,29,30,0.9,0.5,0.7*33
1753538465169;N;$BDGSA,A,3,06,09,14,16,24,26,27,28,33,39,41,42,0.9,0.5,0.7*21
1753538465186;N;$GPGSV,4,1,15,03,06,102,25,04,38,061,37,05,,,39,06,62,203,47*4A
1753538465207;N;$GPGSV,4,2,15,07,30,153,43,09,77,089,45,11,55,286,46,19,05,212,48*78
1753538465700;N;$GPGSV,4,3,15,20,28,290,46,21,33,283,46,26,07,034,36,29,06,343,39*71
1753538465701;N;$GPGSV,4,4,15,30,07,178,37,34,,,43,36,,,38*4D
1753538465701;N;$BDGSV,5,1,17,05,08,110,,06,21,037,32,09,31,049,36,11,13,170,*60
1753538465701;N;$BDGSV,5,2,17,14,66,071,42,16,21,035,34,24,15,123,35,26,24,074,30*6F
1753538465701;N;$BDGSV,5,3,17,27,35,298,47,28,43,239,45,30,,,40,33,84,283,46*5F
1753538465701;N;$BDGSV,5,4,17,39,11,027,34,41,31,260,50,42,37,075,34,43,08,186,40*62
1753538465702;N;$BDGSV,5,5,17,45,08,021,36*51
1753538465703;N;$GNRMC,140104.000,A,5317.83624,N,00605.82648,W,2.73,105.88,260725,,*01
1753538465705;N;$IIRMC,140005,A,5317.839,N,00605.909,W,02.7,105,260725,01,W,A*09
1753538465705;N;$IIVHW,,,083,M,02.9,N,,*64
1753538465706;N;$IIVLW,01612,N,003.2,N*56
1753538465706;N;$IIVWR,124,L,03.8,N,,,,*73
1753538465707;N;$IIDPT,014.9,-1.2,*4E
1753538465849;N;$IIGLL,5317.839,N,00605.909,W,140005,A,A*43
1753538465850;N;$IIHDG,083,,,01,W*0A
1753538465851;N;$IIMTW,+16.0,C*3F
1753538465867;N;$GPRMB,A,0.16,L,6,7,5317.82,N,00605.40,W,0.3,93.6,2.6,V,A*79
1753538465870;N;$GPAPB,A,A,0.16,L,N,V,,126.1,T,7,93.6,T,93.6,T*40
1753538465972;N;$ONWA,DEV,AIS,B+,KS20A-MK2,3.1,2.2.3-240925,550005559,1.2.0-20230722,*00
1753538465973;N;AutoSendDevIdMsg(): get_timer_second() = 3900
1753538465973;N;$IIMWV,236,R,03.8,N,A*1F
1753538466418;N;$GNRMC,140105.000,A,5317.83602,N,00605.82522,W,2.73,105.46,260725,,*09
1753538466418;N;!AIVDO,1,1,,B,B8<Qc=h06oq1Kl7Wtoa28lR03P06,0*73
1753538466419;N;!AIVDO,1,1,,A,H8<Qc=h8h4<e<PDE00000000000,2*6D
1753538466419;N;!AIVDO,1,1,,B,H8<Qc=lT?>G100059F6q00102210,0*16
1753538466421;N;$IIMWV,212,T,05.8,N,A*19
1753538466813;N;$IIRMB,A,0.16,L,,7       ,,,,,000.30,093,02.7,V,A*75
1753538466815;N;$IIRMC,140005,A,5317.839,N,00605.909,W,02.7,105,260725,01,W,A*09
1753538466815;N;$IIVHW,,,083,M,02.9,N,,*64
1753538466816;N;$IIVLW,01612,N,003.2,N*56
1753538466817;N;$IIVWR,119,L,03.8,N,,,,*7D
1753538466817;N;$IIDPT,014.5,-1.2,*42
1753538466883;N;$IIGLL,5317.839,N,00605.909,W,140005,A,A*43
1753538467725;N;$GNRMC,140106.000,A,5317.83585,N,00605.82395,W,2.73,103.29,260725,,*03
1753538467726;N;$IIHDG,081,,,01,W*08
1753538467727;N;$IIMTW,+16.0,C*3F
1753538467728;N;$IIMWV,246,R,03.8,N,A*18
1753538467729;N;$IIMWV,215,T,05.7,N,A*11
1753538467730;N;$IIRMB,A,0.16,L,,7       ,,,,,000.30,093,02.6,V,A*74
1753538467731;N;$IIRMC,140105,A,5317.836,N,00605.825,W,02.7,105,260725,01,W,A*08
1753538467881;N;$IIVHW,,,081,M,02.9,N,,*66
1753538467882;N;$IIVLW,01612,N,003.2,N*56
1753538467883;N;$IIVWR,114,L,03.8,N,,,,*70
1753538468324;N;$IIDPT,014.7,-1.2,*40
1753538468424;N;$IIGLL,5317.835,N,00605.823,W,140106,A,A*44
1753538468457;N;$IIHDG,081,,,01,W*08
1753538468491;N;$IIMTW,+16.0,C*3F
1753538468556;N;$IIMWV,245,R,03.8,N,A*1B
1753538468634;N;$IIMWV,218,T,05.5,N,A*1E
1753538468722;N;$IIRMB,A,0.16,L,,7       ,,,,,000.30,093,02.7,V,A*75
1753538468848;N;$IIRMC,140106,A,5317.835,N,00605.823,W,02.7,103,260725,01,W,A*08
1753538469173;N;$GNRMC,140107.000,A,5317.83567,N,00605.82271,W,2.70,103.82,260725,,*07
1753538469190;N;$GNRMC,140108.000,A,5317.83551,N,00605.82144,W,2.74,102.43,260725,,*00
1753538469325;N;$IIVHW,,,081,M,02.9,N,,*66
1753538469391;N;$IIVLW,01612,N,003.2,N*56
1753538469589;N;$IIVWR,119,L,03.8,N,,,,*7D
1753538469590;N;$IIDPT,014.7,-1.2,*40
1753538469591;N;$IIGLL,5317.835,N,00605.823,W,140106,A,A*44
1753538469649;N;$IIHDG,081,,,01,W*08
1753538469697;N;$IIMTW,+16.0,C*3F
1753538469765;N;$IIMWV,241,R,03.8,N,A*1F
1753538469826;N;$IIMWV,218,T,05.5,N,A*1E
1753538469905;N;$IIRMB,A,0.16,L,,7       ,,,,,000.30,093,02.7,V,A*75
1753538470165;N;$GPGSA,A,3,03,04,06,07,09,11,19,20,21,26,29,30,0.9,0.5,0.7*33
1753538470182;N;$BDGSA,A,3,06,09,14,16,24,26,27,28,33,39,41,42,0.9,0.5,0.7*21
1753538470198;N;$GPGSV,4,1,15,03,06,102,24,04,38,061,37,05,,,42,06,62,203,47*47
1753538470219;N;$GPGSV,4,2,15,07,30,153,44,09,77,089,45,11,55,286,46,19,05,212,46*71
1753538470712;N;$GPGSV,4,3,15,20,28,290,45,21,33,283,46,26,07,034,35,29,06,343,40*7F
1753538470713;N;$GPGSV,4,4,15,30,08,178,37,34,,,43,36,,,38*42
1753538470713;N;$BDGSV,5,1,17,05,08,110,,06,21,037,33,09,31,049,34,11,13,170,*63
1753538470713;N;$BDGSV,5,2,17,14,66,071,43,16,21,035,36,24,15,123,31,26,25,074,29*61
1753538470713;N;$BDGSV,5,3,17,27,36,298,48,28,43,239,47,30,,,42,33,84,283,46*53
1753538470713;N;$BDGSV,5,4,17,39,11,027,37,41,31,260,50,42,37,075,30,43,08,186,39*6B
1753538470714;N;$BDGSV,5,5,17,45,08,021,37*50
1753538470715;N;$GNRMC,140109.000,A,5317.83537,N,00605.82019,W,2.64,102.09,260725,,*07
1753538470717;N;$IIRMC,140106,A,5317.835,N,00605.823,W,02.7,102,260725,01,W,A*09
1753538470717;N;$IIVHW,,,081,M,03.0,N,,*6E
1753538470718;N;$IIVLW,01612,N,003.2,N*56
1753538470718;N;$IIVWR,115,L,03.7,N,,,,*7E
1753538470719;N;$IIDPT,014.7,-1.2,*40
1753538470829;N;$IIGLL,5317.835,N,00605.823,W,140106,A,A*44
1753538470830;N;$IIHDG,081,,,01,W*08
1753538470830;N;$IIMTW,+16.0,C*3F
1753538470902;N;$GPRMB,A,0.14,L,6,7,5317.82,N,00605.40,W,0.3,93.4,2.7,V,A*78
1753538470903;N;$GPAPB,A,A,0.14,L,N,V,,126.1,T,7,93.4,T,93.4,T*42
1753538471001;N;$IIMWV,245,R,03.7,N,A*14
1753538471330;N;$GNRMC,140110.000,A,5317.83523,N,00605.81895,W,2.73,102.00,260725,,*0A
1753538471332;N;$IIMWV,216,T,05.5,N,A*10
1753538471441;N;$IIRMB,A,0.16,L,,7       ,,,,,000.30,093,02.7,V,A*75
1753538471591;N;$IIRMC,140106,A,5317.835,N,00605.823,W,02.7,102,260725,01,W,A*09
1753538471624;N;$IIVHW,,,080,M,02.9,N,,*67
1753538471690;N;$IIVLW,01612,N,003.2,N*56
1753538471901;N;$IIVWR,119,L,03.6,N,,,,*73
1753538471902;N;$IIDPT,014.7,-1.2,*40
1753538471902;N;$IIGLL,5317.835,N,00605.823,W,140106,A,A*44
1753538472156;N;$GNGGA,140111.000,5317.83509,N,00605.81769,W,1,26,0.5,2.8,M,55.7,M,,*5D
1753538472174;N;$GNRMC,140111.000,A,5317.83509,N,00605.81769,W,2.73,102.06,260725,,*09
1753538472325;N;$IIHDG,082,,,01,W*0B
1753538472358;N;$IIMTW,+16.0,C*3F
1753538472545;N;$IIMWV,245,R,03.6,N,A*15
1753538472547;N;$IIMWV,213,T,05.6,N,A*16
1753538472590;N;$IIRMB,A,0.16,L,,7       ,,,,,000.30,093,02.7,V,A*75
1753538472723;N;$IIRMC,140106,A,5317.835,N,00605.823,W,02.7,102,260725,01,W,A*09
1753538472789;N;$IIVHW,,,082,M,02.9,N,,*65
1753538472823;N;$IIVLW,01612,N,003.2,N*56
1753538472897;N;$IIVWR,115,L,03.6,N,,,,*7F
1753538473146;N;$GNRMC,140112.000,A,5317.83500,N,00605.81647,W,2.66,99.38,260725,,*34
1753538473325;N;$IIDPT,014.9,-1.2,*4E
1753538473424;N;$IIGLL,5317.835,N,00605.823,W,140106,A,A*44
1753538473457;N;$IIHDG,081,,,01,W*08
1753538473491;N;$IIMTW,+16.0,C*3F
1753538473557;N;$IIMWV,244,R,03.8,N,A*1A
1753538473634;N;$IIMWV,216,T,05.4,N,A*11
1753538473723;N;$IIRMB,A,0.16,L,,7       ,,,,,000.30,093,02.7,V,A*75
1753538473850;N;$IIRMC,140106,A,5317.835,N,00605.823,W,02.7,102,260725,01,W,A*09
1753538474146;N;$GNRMC,140113.000,A,5317.83488,N,00605.81525,W,2.67,100.87,260725,,*07
1753538474325;N;$IIVHW,,,082,M,02.8,N,,*64
1753538474391;N;$IIVLW,01612,N,003.2,N*56
1753538474458;N;$IIVWR,118,L,03.8,N,,,,*7C
1753538474491;N;$IIDPT,014.9,-1.2,*4E
1753538474592;N;$IIGLL,5317.835,N,00605.823,W,140106,A,A*44
1753538474624;N;$IIHDG,082,,,01,W*0B
1753538474657;N;$IIMTW,+16.0,C*3F
1753538474723;N;$IIMWV,242,R,03.8,N,A*1C
1753538474834;N;$IIMWV,217,T,05.6,N,A*12
1753538474884;N;$IIRMB,A,0.16,L,,7       ,,,,,000.30,093,02.7,V,A*75
1753538475136;N;$GPGSA,A,3,04,06,07,09,11,19,20,21,26,29,30,,0.9,0.5,0.7*30
1753538475152;N;$BDGSA,A,3,06,09,14,16,24,26,27,28,33,39,41,42,0.9,0.5,0.7*21
1753538475169;N;$GPGSV,4,1,15,03,06,102,20,04,38,061,37,05,,,40,06,62,203,47*41
1753538475190;N;$GPGSV,4,2,15,07,30,153,42,09,77,089,45,11,55,286,45,19,05,212,47*75
1753538475676;N;$GPGSV,4,3,15,20,28,290,45,21,33,283,47,26,07,034,35,29,06,343,40*7E
1753538475677;N;$GPGSV,4,4,15,30,08,178,37,34,,,43,36,,,38*42
1753538475677;N;$BDGSV,5,1,17,05,08,110,,06,21,037,35,09,31,049,34,11,13,170,*65
1753538475677;N;$BDGSV,5,2,17,14,66,072,43,16,21,035,36,24,15,123,26,26,25,074,27*6A
1753538475677;N;$BDGSV,5,3,17,27,36,298,47,28,43,239,48,30,,,41,33,84,283,47*51
1753538475677;N;$BDGSV,5,4,17,39,11,027,36,41,31,260,48,42,37,075,29,43,08,186,37*65
1753538475678;N;$BDGSV,5,5,17,45,08,021,39*5E
1753538475679;N;$GNRMC,140114.000,A,5317.83475,N,00605.81402,W,2.69,100.81,260725,,*0E
1753538475682;N;$IIRMC,140113,A,5317.834,N,00605.815,W,02.6,100,260725,01,W,A*0A
1753538475683;N;$IIVHW,,,082,M,02.8,N,,*64
1753538475683;N;$IIVLW,01612,N,003.2,N*56
1753538475684;N;$IIVWR,118,L,03.9,N,,,,*7D
1753538475685;N;$IIDPT,014.9,-1.2,*4E
1753538475825;N;$IIGLL,5317.834,N,00605.815,W,140113,A,A*44
1753538475826;N;$IIHDG,082,,,01,W*0B
1753538475826;N;$IIMTW,+16.0,C*3F
1753538475938;N;$GPRMB,A,0.14,L,6,7,5317.82,N,00605.40,W,0.2,93.2,2.6,V,A*7E
1753538475939;N;$GPAPB,A,A,0.14,L,N,V,,126.1,T,7,93.2,T,93.2,T*42
1753538475949;N;$IIMWV,242,R,03.9,N,A*1D
1753538476394;N;$IIMWV,217,T,05.7,N,A*13
1753538476395;N;$GNRMC,140115.000,A,5317.83462,N,00605.81279,W,2.70,101.44,260725,,*03
1753538476396;N;!AIVDO,1,1,,A,B8<Qc=h06Wq1Lj7Wtndw0j703P06,0*63
1753538476396;N;!AIVDO,1,1,,B,H8<Qc=h8h4<e<PDE00000000000,2*6E
1753538476397;N;!AIVDO,1,1,,A,H8<Qc=lT?>G100059F6q00102210,0*15
1753538476629;N;$IIRMB,A,0.16,L,,7       ,,,,,000.30,093,02.7,V,A*75
1753538476630;N;$IIRMC,140113,A,5317.834,N,00605.815,W,02.6,100,260725,01,W,A*0A
1753538476631;N;$IIVHW,,,081,M,02.6,N,,*69
1753538476729;N;$IIVLW,01612,N,003.2,N*56
1753538477461;N;$IIVWR,120,L,04.1,N,,,,*79
1753538477462;N;$IIDPT,014.9,-1.2,*4E
1753538477462;N;$IIGLL,5317.834,N,00605.815,W,140113,A,A*44
1753538477463;N;$IIHDG,082,,,01,W*0B
1753538477463;N;$IIMTW,+16.0,C*3F
1753538477464;N;$IIMWV,238,R,04.2,N,A*1C
1753538477465;N;$IIMWV,217,T,05.7,N,A*13
1753538477467;N;$GNRMC,140116.000,A,5317.83448,N,00605.81154,W,2.70,101.08,260725,,*0C
1753538477589;N;$IIRMB,A,0.16,L,,7       ,,,,,000.30,093,02.7,V,A*75
1753538477722;N;$IIRMC,140113,A,5317.834,N,00605.815,W,02.6,100,260725,01,W,A*0A
1753538477788;N;$IIVHW,,,082,M,02.5,N,,*69
1753538477821;N;$IIVLW,01612,N,003.2,N*56
1753538478117;N;$IIVWR,122,L,04.2,N,,,,*78
1753538478135;N;$GNRMC,140117.000,A,5317.83433,N,00605.81027,W,2.73,101.28,260725,,*05
1753538478324;N;$IIDPT,014.9,-1.2,*4E
1753538478424;N;$IIGLL,5317.834,N,00605.815,W,140113,A,A*44
1753538478457;N;$IIHDG,082,,,01,W*0B
1753538478490;N;$IIMTW,+16.0,C*3F
1753538478556;N;$IIMWV,243,R,04.3,N,A*11
1753538478666;N;$IIMWV,217,T,05.8,N,A*1C
1753538478722;N;$IIRMB,A,0.16,L,,7       ,,,,,000.30,093,02.7,V,A*75
1753538478847;N;$IIRMC,140113,A,5317.834,N,00605.815,W,02.6,100,260725,01,W,A*0A
1753538479167;N;$GNRMC,140118.000,A,5317.83415,N,00605.80897,W,2.78,102.81,260725,,*07
1753538479325;N;$IIVHW,,,082,M,02.6,N,,*6A
1753538479391;N;$IIVLW,01612,N,003.2,N*56
1753538479457;N;$IIVWR,120,L,04.1,N,,,,*79
1753538479490;N;$IIDPT,014.9,-1.2,*4E
