1753534800135;N;$GPGSA,A,3,03,04,06,09,11,17,19,20,21,31,,,0.9,0.5,0.7*3C
1753534800449;N;$IIHDG,261,,,01,W*04
1753534800450;N;$IIMTW,+16.0,C*3F
1753534800450;N;$BDGSA,A,3,05,06,09,11,14,16,21,26,27,28,33,39,0.9,0.5,0.7*22
1753534800450;N;$GPGSV,4,1,15,01,,,43,03,30,087,48,04,63,078,47,06,69,277,45*4A
1753534800450;N;$GPGSV,4,2,15,07,05,162,,09,65,188,45,11,32,304,39,17,15,207,39*77
1753534800450;N;$GPGSV,4,3,15,19,29,226,40,20,05,279,22,21,09,270,19,25,,,39*4A
1753534800451;N;$GPGSV,4,4,15,31,15,034,47,34,,,39,36,,,43*40
1753534800451;N;$BDGSV,4,1,16,05,08,109,44,06,25,043,45,09,31,058,42,11,14,170,40*6F
1753534800451;N;$BDGSV,4,2,16,14,88,211,42,16,25,041,45,21,12,065,48,26,11,095,51*6F
1753534800451;N;$BDGSV,4,3,16,27,21,317,37,28,51,275,41,33,59,244,39,36,,,32*54
1753534800452;N;$BDGSV,4,4,16,39,18,030,42,42,61,067,48,43,33,190,40,45,13,041,45*69
1753534800453;N;$GNRMC,125959.000,A,5318.37416,N,00607.67620,W,4.33,240.12,260725,,*05
1753534800501;N;$IIMWV,043,R,15.0,N,A*10
1753534800503;N;$IIMWV,061,T,11.3,N,A*11
1753534800624;N;$IIRMB,A,0.19,L,,4       ,,,,,000.80,268,02.6,V,A*75
1753534800757;N;$IIRMC,125947,A,5318.379,N,00607.660,W,02.3,250,260725,01,W,A*00
1753534801449;N;$IIVHW,,,261,M,05.1,N,,*65
1753534801450;N;$IIVLW,01609,N,001.1,N*5D
1753534801451;N;$IIVWR,043,R,15.0,N,,,,*62
1753534801451;N;$IIDPT,012.5,-1.2,*44
1753534801454;N;!AIVDM,1,1,,A,402HVp1vUu=00wT=qtNRUbG000S:,0*0A
1753534801454;N;stop_pwm
1753534801454;N;start_pwm
1753534801455;N;$GNRMC,130000.000,A,5318.37347,N,00607.67793,W,4.70,234.98,260725,,*08
1753534801462;N;$IIGLL,5318.379,N,00607.660,W,125947,A,A*4D
1753534801633;N;$IIHDG,262,,,01,W*07
1753534801634;N;$IIMTW,+16.0,C*3F
1753534801634;N;$IIMWV,042,R,15.0,N,A*11
1753534801635;N;!AIVDM,1,1,,B,13m2gD8000OSqOtNOpgP09@40<0m,0*6F
1753534801770;N;$IIMWV,061,T,11.6,N,A*14
1753534801791;N;$IIRMC,125947,A,5318.379,N,00607.660,W,02.3,250,260725,01,W,A*00
1753534801824;N;$IIVHW,,,262,M,05.3,N,,*64
1753534801884;N;$IIVLW,01609,N,001.1,N*5D
1753534802277;N;$GNGGA,130001.000,5318.37282,N,00607.67970,W,1,25,0.5,4.1,M,55.8,M,,*51
1753534802279;N;$GNRMC,130001.000,A,5318.37282,N,00607.67970,W,4.55,241.39,260725,,*0C
1753534802357;N;$IIVWR,043,R,15.3,N,,,,*61
1753534802424;N;$IIDPT,012.5,-1.2,*44
1753534802693;N;$IIGLL,5318.379,N,00607.660,W,125947,A,A*4D
1753534802694;N;$IIHDG,264,,,01,W*01
1753534802695;N;$IIMTW,+16.0,C*3F
1753534802695;N;$IIMWV,043,R,15.3,N,A*13
1753534802697;N;$IIMWV,060,T,11.5,N,A*16
1753534802802;N;$IIRMB,A,0.19,L,,4       ,,,,,000.80,268,02.6,V,A*75
1753534803142;N;$GNRMC,130002.000,A,5318.37222,N,00607.68143,W,4.32,241.49,260725,,*04
1753534803458;N;$IIRMC,125947,A,5318.379,N,00607.660,W,04.5,241,260725,01,W,A*00
1753534803491;N;$IIVHW,,,266,M,05.7,N,,*64
1753534803499;N;!AIVDM,1,1,,A,B3fK6A@0??pwRp7Wwu;2KwQUoP06,0*32
1753534803557;N;$IIVLW,01609,N,001.1,N*5D
1753534803817;N;$IIVWR,043,R,15.5,N,,,,*67
1753534803818;N;$IIDPT,012.5,-1.2,*44
1753534803818;N;$IIGLL,5318.379,N,00607.660,W,125947,A,A*4D
1753534803819;N;$IIHDG,266,,,01,W*03
1753534803821;N;!AIVDM,1,1,,A,B3fKDD@0AWpwUR7`1VIqKwQUoP06,0*15
1753534803877;N;$IIMTW,+16.0,C*3F
1753534803887;N;$IIMWV,043,R,15.5,N,A*15
1753534804057;N;!AIVDM,1,1,,A,B3fKckh0<7pwVb7`3pHT3wQQj5h1,0*58
1753534804130;N;$GNRMC,130003.000,A,5318.37169,N,00607.68326,W,4.52,247.36,260725,,*00
1753534804391;N;$GPRMB,A,0.18,L,3,4,5318.36,N,00609.00,W,0.8,269.1,4.2,V,A*40
1753534804392;N;$GPAPB,A,A,0.18,L,N,V,,282.4,T,4,269.1,T,269.1,T*45
1753534804470;N;$IIMWV,062,T,11.9,N,A*18
1753534804470;N;$IIRMB,A,0.19,L,,4       ,,,,,000.80,268,02.6,V,A*75
1753534804625;N;$IIRMC,125947,A,5318.379,N,00607.660,W,04.5,241,260725,01,W,A*00
1753534804658;N;$IIVHW,,,268,M,05.7,N,,*6A
1753534804724;N;$IIVLW,01609,N,001.1,N*5D
1753534804790;N;$IIVWR,043,R,15.3,N,,,,*61
1753534805077;N;$IIDPT,012.5,-1.2,*44
1753534805078;N;$IIGLL,5318.379,N,00607.660,W,125947,A,A*4D
1753534805133;N;$GPGSA,A,3,03,04,06,09,11,17,19,20,21,31,,,0.9,0.5,0.7*3C
1753534805149;N;$BDGSA,A,3,05,06,09,11,14,16,21,26,27,28,33,39,0.9,0.5,0.7*22
1753534805252;N;$GPGSV,4,1,15,01,,,44,03,30,087,46,04,63,078,46,06,69,277,44*43
1753534805252;N;$GPGSV,4,2,15,07,05,162,,09,65,188,45,11,32,304,37,17,15,207,37*77
1753534805252;N;$GPGSV,4,3,15,19,29,226,41,20,05,279,22,21,09,270,20,25,,,35*4D
1753534805253;N;$GPGSV,4,4,15,31,15,034,48,34,,,39,36,,,43*4F
1753534805253;N;$BDGSV,4,1,16,05,08,109,44,06,25,043,40,09,31,058,44,11,14,170,40*6C
1753534805253;N;$BDGSV,4,2,16,14,88,211,43,16,25,041,43,21,12,065,49,26,11,095,49*60
1753534805612;N;$BDGSV,4,3,16,27,21,317,36,28,51,275,41,33,59,244,41,36,,,31*59
1753534805613;N;$BDGSV,4,4,16,39,18,030,46,42,61,067,45,43,33,190,39,45,13,041,45*6E
1753534805614;N;$GNRMC,130004.000,A,5318.37139,N,00607.68521,W,4.45,262.97,260725,,*09
1753534805615;N;$IIHDG,268,,,01,W*0D
1753534805616;N;$IIMTW,+16.0,C*3F
1753534805616;N;$IIMWV,044,R,15.2,N,A*15
1753534805618;N;$IIMWV,063,T,11.6,N,A*16
1753534806033;N;$IIRMB,A,0.18,L,,4       ,,,,,000.80,269,04.2,V,A*77
1753534806034;N;$IIRMC,125947,A,5318.379,N,00607.660,W,04.5,241,260725,01,W,A*00
1753534806035;N;$IIVHW,,,268,M,05.8,N,,*65
1753534806036;N;$IIVLW,01609,N,001.1,N*5D
1753534806037;N;$IIVWR,044,R,15.2,N,,,,*67
1753534806038;N;!AIVDM,1,1,,A,B3MC52P0?opws5W`5;r03wRQhD0o,0*60
1753534806038;N;$ONWA,DEV,AIS,B+,KS20A-MK2,3.1,2.2.3-240925,550005559,1.2.0-20230722,*00
1753534806038;N;AutoSendDevIdMsg(): get_timer_second() = 240
1753534806154;N;$GNRMC,130005.000,A,5318.37121,N,00607.68721,W,4.52,262.72,260725,,*0E
1753534806154;N;!AIVDO,1,1,,A,B8<Qc=h0;7pw:V7`266TF3203P06,0*71
1753534806155;N;!AIVDO,1,1,,B,H8<Qc=h8h4<e<PDE00000000000,2*6E
1753534806873;N;!AIVDO,1,1,,A,H8<Qc=lT?>G100059F6q00102210,0*15
1753534806874;N;$IIDPT,012.3,-1.2,*42
1753534806875;N;$IIGLL,5318.379,N,00607.660,W,125947,A,A*4D
1753534806876;N;$IIHDG,266,,,01,W*03
1753534806877;N;$IIMTW,+16.0,C*3F
1753534806877;N;$IIMWV,045,R,15.2,N,A*14
1753534806879;N;$IIMWV,064,T,11.5,N,A*12
1753534806880;N;$IIRMC,125947,A,5318.379,N,00607.660,W,04.5,241,260725,01,W,A*00
1753534806881;N;$IIVHW,,,266,M,05.7,N,,*64
1753534806985;N;$IIVLW,01609,N,001.1,N*5D
1753534807381;N;$IIVWR,045,R,15.1,N,,,,*65
1753534807382;N;$GNRMC,130006.000,A,5318.37092,N,00607.68928,W,4.69,253.77,260725,,*0C
1753534807423;N;$IIDPT,012.3,-1.2,*42
1753534807490;N;$IIGLL,5318.371,N,00607.687,W,130005,A,A*47
1753534807557;N;$IIHDG,263,,,01,W*06
1753534807589;N;$IIMTW,+16.0,C*3F
1753534807817;N;$IIMWV,045,R,15.1,N,A*17
1753534807819;N;$IIMWV,065,T,11.7,N,A*11
1753534807819;N;$IIRMB,A,0.18,L,,4       ,,,,,000.80,269,04.2,V,A*77
1753534808151;N;$GNRMC,130007.000,A,5318.37053,N,00607.69136,W,4.86,251.89,260725,,*04
1753534808458;N;$IIRMC,130005,A,5318.371,N,00607.687,W,04.6,253,260725,01,W,A*0A
1753534808491;N;$IIVHW,,,261,M,05.7,N,,*63
1753534808558;N;$IIVLW,01609,N,001.1,N*5D
1753534808624;N;$IIVWR,045,R,14.8,N,,,,*6D
1753534808769;N;$IIDPT,012.3,-1.2,*42
1753534808770;N;$IIGLL,5318.371,N,00607.687,W,130005,A,A*47
1753534808821;N;$IIHDG,261,,,01,W*04
1753534808857;N;$IIMTW,+16.0,C*3F
1753534808888;N;$IIMWV,045,R,14.8,N,A*1F
1753534809131;N;$GNRMC,130008.000,A,5318.37009,N,00607.69341,W,4.77,250.47,260725,,*0B
1753534809359;N;$IIMWV,066,T,11.5,N,A*10
1753534809427;N;$GPRMB,A,0.18,L,3,4,5318.36,N,00609.00,W,0.8,269.3,4.5,V,A*45
1753534809428;N;$GPAPB,A,A,0.18,L,N,V,,282.4,T,4,269.3,T,269.3,T*45
1753534809457;N;$IIRMB,A,0.18,L,,4       ,,,,,000.80,269,04.2,V,A*77
1753534809623;N;$IIRMC,130005,A,5318.371,N,00607.687,W,04.6,253,260725,01,W,A*0A
1753534809925;N;$IIVHW,,,261,M,05.7,N,,*63
1753534809926;N;$IIVLW,01609,N,001.1,N*5D
1753534809927;N;$IIVWR,043,R,14.5,N,,,,*66
1753534809927;N;$IIDPT,012.3,-1.2,*42
1753534809928;N;$IIGLL,5318.371,N,00607.687,W,130005,A,A*47
1753534810125;N;$GPGSA,A,3,03,04,06,09,11,17,19,20,21,31,,,0.9,0.5,0.7*3C
1753534810142;N;$BDGSA,A,3,05,06,09,11,14,16,21,26,27,28,33,39,0.9,0.5,0.7*22
1753534810158;N;$GPGSV,4,1,15,01,,,37,03,30,087,46,04,63,078,46,06,69,277,42*41
1753534810175;N;$GPGSV,4,2,15,07,05,162,,09,65,188,45,11,32,304,40,17,15,207,39*79
1753534810680;N;$GPGSV,4,3,15,19,29,226,40,20,05,279,21,21,09,270,24,25,,,40*49
1753534810682;N;$GPGSV,4,4,15,31,15,034,45,34,,,39,36,,,43*42
1753534810682;N;$BDGSV,4,1,16,05,08,109,44,06,25,043,44,09,31,058,42,11,14,170,38*61
1753534810682;N;$BDGSV,4,2,16,14,88,211,41,16,25,041,44,21,12,065,42,26,11,095,40*67
1753534810682;N;$BDGSV,4,3,16,27,21,317,37,28,51,275,42,33,59,244,43,36,,,32*5A
1753534810683;N;$BDGSV,4,4,16,39,18,030,46,42,61,067,48,43,33,190,40,45,13,041,50*69
1753534810685;N;$GNRMC,130009.000,A,5318.36953,N,00607.69535,W,4.71,240.73,260725,,*08
1753534810686;N;$IIHDG,262,,,01,W*07
1753534810687;N;$IIMTW,+16.0,C*3F
1753534810688;N;$IIMWV,043,R,14.4,N,A*15
1753534810690;N;$IIMWV,064,T,10.8,N,A*1E
1753534810691;N;$IIRMB,A,0.18,L,,4       ,,,,,000.80,269,04.2,V,A*77
1753534810782;N;$IIRMC,130005,A,5318.371,N,00607.687,W,04.6,253,260725,01,W,A*0A
1753534810917;N;$IIVHW,,,262,M,05.7,N,,*60
1753534810918;N;$IIVLW,01609,N,001.1,N*5D
1753534810918;N;$IIVWR,043,R,14.4,N,,,,*67
1753534811261;N;!AIVDM,1,1,,B,402HVp1vUu=0:wT=qtNRUbG00@6K,0*67
1753534811262;N;$GNRMC,130010.000,A,5318.36890,N,00607.69725,W,4.77,241.54,260725,,*0F
1753534811263;N;!AIVDM,1,1,,A,13m2gD8000OSqOtNOpgP09@F086P,0*21
1753534811389;N;$IIDPT,012.3,-1.2,*42
1753534811785;N;$IIGLL,5318.371,N,00607.687,W,130005,A,A*47
1753534811786;N;$IIHDG,264,,,01,W*01
1753534811787;N;$IIMTW,+16.0,C*3F
1753534811787;N;$IIMWV,042,R,14.6,N,A*16
1753534811789;N;$IIMWV,064,T,10.8,N,A*1E
1753534811793;N;$IIRMC,130005,A,5318.371,N,00607.687,W,04.6,253,260725,01,W,A*0A
1753534811969;N;$IIVHW,,,264,M,05.8,N,,*69
1753534811970;N;$IIVLW,01609,N,001.1,N*5D
1753534812136;N;$GNGGA,130011.000,5318.36835,N,00607.69925,W,1,25,0.5,4.2,M,55.8,M,,*5A
1753534812154;N;$GNRMC,130011.000,A,5318.36835,N,00607.69925,W,4.85,247.99,260725,,*05
1753534812525;N;$IIVWR,040,R,14.7,N,,,,*67
1753534812526;N;$IIDPT,012.3,-1.2,*42
1753534812526;N;$IIGLL,5318.371,N,00607.687,W,130005,A,A*47
1753534812556;N;$IIHDG,266,,,01,W*03
1753534812701;N;$IIMTW,+16.0,C*3F
1753534812702;N;$IIMWV,040,R,14.7,N,A*15
1753534812703;N;$IIMWV,063,T,10.9,N,A*18
1753534812821;N;$IIRMC,130005,A,5318.371,N,00607.687,W,04.6,253,260725,01,W,A*0A
1753534812884;N;$IIVHW,,,266,M,05.9,N,,*6A
1753534813098;N;!AIVDM,1,1,,B,B3ILIH00?Opw`wW`2tAlSwVUoP06,0*72
1753534813123;N;$GNRMC,130012.000,A,5318.36791,N,00607.70140,W,5.00,254.16,260725,,*0D
1753534813358;N;$IIVLW,01609,N,001.1,N*5D
1753534813424;N;$IIVWR,040,R,14.5,N,,,,*65
1753534813489;N;$IIDPT,012.3,-1.2,*42
1753534813556;N;$IIGLL,5318.371,N,00607.687,W,130005,A,A*47
1753534813606;N;!AIVDM,1,1,,A,B3IJL1P0>?pwKn7`2drLKwVWkP06,0*55
1753534813622;N;$IIHDG,266,,,01,W*03
1753534813655;N;$IIMTW,+16.0,C*3F
1753534813761;N;$IIMWV,040,R,14.5,N,A*17
1753534813763;N;$IIMWV,060,T,10.8,N,A*1A
1753534813893;N;$IIRMC,130005,A,5318.371,N,00607.687,W,04.6,253,260725,01,W,A*0A
1753534814130;N;$GNRMC,130013.000,A,5318.36768,N,00607.70357,W,4.76,264.18,260725,,*03
1753534814356;N;$IIVHW,,,264,M,05.9,N,,*68
1753534814422;N;$IIVLW,01609,N,001.1,N*5D
1753534814463;N;$GPRMB,A,0.17,L,3,4,5318.36,N,00609.00,W,0.8,269.4,4.7,V,A*4F
1753534814465;N;$GPAPB,A,A,0.17,L,N,V,,282.4,T,4,269.4,T,269.4,T*4A
1753534814488;N;$IIVWR,040,R,14.1,N,,,,*61
1753534814597;N;$IIDPT,012.3,-1.2,*42
1753534814833;N;$IIGLL,5318.371,N,00607.687,W,130005,A,A*47
1753534814834;N;$IIHDG,264,,,01,W*01
1753534814835;N;$IIMTW,+16.0,C*3F
1753534814835;N;$IIMWV,040,R,14.1,N,A*13
1753534814837;N;$IIMWV,061,T,10.5,N,A*16
1753534814838;N;!AIVDM,1,1,,A,H3fKcqDUCBD9BR7591kimq10454t,0*4B
1753534815113;N;!AIVDM,1,1,,B,B3fQ41P0<Opwue7`79qkmRBUoP06,0*30
1753534815125;N;$GPGSA,A,3,03,04,06,09,11,17,19,20,21,31,,,0.9,0.5,0.7*3C
1753534815142;N;$BDGSA,A,3,05,06,09,11,14,16,21,26,27,28,33,39,0.9,0.5,0.7*22
1753534815159;N;$GPGSV,4,1,16,01,,,39,03,30,087,47,04,63,078,46,06,69,277,41*4E
1753534815608;N;$GPGSV,4,2,16,07,05,162,,09,66,188,44,11,32,304,38,17,15,207,39*77
1753534815608;N;$GPGSV,4,3,16,19,29,226,36,20,05,279,21,21,09,270,22,25,,,37*4D
1753534815609;N;$GPGSV,4,4,16,31,15,034,46,34,,,39,36,,,43,40,,,39*4C
1753534815609;N;$BDGSV,4,1,16,05,08,109,44,06,25,043,42,09,31,058,42,11,14,170,35*6A
1753534815609;N;$BDGSV,4,2,16,14,88,210,42,16,25,041,44,21,12,065,49,26,11,095,48*66
1753534815609;N;$BDGSV,4,3,16,27,21,317,35,28,51,275,42,33,59,244,42,36,,,34*5F
1753534815610;N;$BDGSV,4,4,16,39,18,030,45,42,61,067,48,43,33,190,39,45,13,041,51*65
1753534815611;N;$GNRMC,130014.000,A,5318.36746,N,00607.70574,W,4.69,259.27,260725,,*03
1753534815612;N;$IIRMC,130005,A,5318.371,N,00607.687,W,04.7,264,260725,01,W,A*0F
1753534815613;N;$IIVHW,,,261,M,05.8,N,,*6C
1753534815614;N;$IIVLW,01609,N,001.1,N*5D
1753534815733;N;$IIVWR,040,R,13.8,N,,,,*6F
1753534815734;N;$IIDPT,012.3,-1.2,*42
1753534815885;N;$IIGLL,5318.371,N,00607.687,W,130005,A,A*47
1753534815886;N;$IIHDG,261,,,01,W*04
1753534815887;N;$IIMTW,+16.0,C*3F
1753534815888;N;$IIMWV,040,R,13.8,N,A*1D
1753534816207;N;$GNRMC,130015.000,A,5318.36716,N,00607.70782,W,4.51,254.87,260725,,*00
1753534816207;N;!AIVDO,1,1,,B,B8<Qc=h0;Wpw8wW`23bR21W03P06,0*15
1753534816208;N;!AIVDO,1,1,,A,H8<Qc=h8h4<e<PDE00000000000,2*6D
1753534816209;N;!AIVDO,1,1,,B,H8<Qc=lT?>G100059F6q00102210,0*16
1753534816442;N;$IIMWV,062,T,09.9,N,A*11
1753534816491;N;$IIRMC,130005,A,5318.371,N,00607.687,W,04.7,264,260725,01,W,A*0F
1753534816557;N;$IIVHW,,,260,M,05.8,N,,*6D
1753534816623;N;$IIVLW,01609,N,001.1,N*5D
1753534817057;N;$IIVWR,042,R,13.6,N,,,,*63
1753534817058;N;$IIDPT,012.3,-1.2,*42
1753534817058;N;$IIGLL,5318.371,N,00607.687,W,130005,A,A*47
1753534817059;N;$IIHDG,260,,,01,W*05
1753534817059;N;$IIMTW,+16.0,C*3F
1753534817129;N;$GNRMC,130016.000,A,5318.36675,N,00607.70976,W,4.39,246.78,260725,,*0F
1753534817358;N;$IIMWV,042,R,13.2,N,A*15
1753534817425;N;$IIMWV,065,T,10.0,N,A*17
1753534817557;N;$IIRMC,130005,A,5318.371,N,00607.687,W,04.7,264,260725,01,W,A*0F
1753534817623;N;$IIVHW,,,258,M,05.7,N,,*69
1753534817656;N;$IIVLW,01609,N,001.1,N*5D
1753534817722;N;$IIVWR,042,R,13.2,N,,,,*67
1753534817869;N;$IIDPT,011.9,-1.2,*4B
1753534817870;N;$IIGLL,5318.371,N,00607.687,W,130005,A,A*47
1753534817900;N;$IIHDG,258,,,01,W*0E
1753534818132;N;$GNRMC,130017.000,A,5318.36620,N,00607.71160,W,4.55,240.99,260725,,*03
1753534818357;N;$IIMTW,+16.0,C*3F
1753534818391;N;$IIMWV,042,R,12.8,N,A*1E
1753534818457;N;$IIMWV,065,T,09.6,N,A*19
1753534818593;N;$IIRMC,130005,A,5318.371,N,00607.687,W,04.7,264,260725,01,W,A*0F
1753534818655;N;$IIVHW,,,258,M,05.7,N,,*69
1753534818688;N;$IIVLW,01609,N,001.1,N*5D
1753534818754;N;$IIVWR,042,R,12.8,N,,,,*6C
1753534818909;N;$IIDPT,011.9,-1.2,*4B
1753534818910;N;$IIGLL,5318.371,N,00607.687,W,130005,A,A*47
1753534818994;N;!AIVDM,1,1,,B,H3fK;504pT5:222222222222220,2*60
1753534819126;N;$GNRMC,130018.000,A,5318.36559,N,00607.71356,W,4.77,242.40,260725,,*00
1753534819357;N;$IIHDG,260,,,01,W*05
1753534819390;N;$IIMTW,+16.0,C*3F
1753534819457;N;$IIMWV,041,R,13.0,N,A*14
1753534819491;N;$IIMWV,067,T,09.2,N,A*1F
1753534819502;N;$GPRMB,A,0.17,L,3,4,5318.36,N,00609.00,W,0.8,269.6,4.2,V,A*48
1753534819503;N;$GPAPB,A,A,0.17,L,N,V,,282.4,T,4,269.6,T,269.6,T*4A
1753534819630;N;$IIRMC,130005,A,5318.371,N,00607.687,W,04.7,264,260725,01,W,A*0F
1753534819949;N;$IIVHW,,,260,M,05.7,N,,*62
1753534819950;N;$IIVLW,01609,N,001.1,N*5D
1753534819950;N;$IIVWR,041,R,13.0,N,,,,*66
1753534819951;N;$IIDPT,011.9,-1.2,*4B
1753534819952;N;!AIVDM,1,1,,A,B3fK3nh07WpvsG7`4v>W;waQj46;,0*7E
1753534820123;N;$GPGSA,A,3,03,04,06,09,11,17,19,20,21,31,,,0.9,0.5,0.7*3C
1753534820139;N;$BDGSA,A,3,05,06,09,11,14,16,21,26,27,28,33,39,0.9,0.5,0.7*22
1753534820156;N;$GPGSV,4,1,16,01,,,39,03,29,087,46,04,63,078,47,06,69,277,45*42
1753534820173;N;$GPGSV,4,2,16,07,05,162,,09,66,188,45,11,32,304,39,17,15,207,37*79
1753534820709;N;$IIGLL,5318.371,N,00607.687,W,130005,A,A*47
1753534820710;N;$IIHDG,259,,,01,W*0F
1753534820711;N;$IIMTW,+16.0,C*3F
1753534820711;N;$IIMWV,040,R,13.1,N,A*14
1753534820713;N;$IIMWV,065,T,09.3,N,A*1C
1753534820714;N;$IIRMB,A,0.17,L,,4       ,,,,,000.80,269,04.2,V,A*78
1753534820714;N;$GPGSV,4,3,16,19,29,226,41,20,05,279,22,21,09,270,22,25,,,40*4E
1753534820714;N;$GPGSV,4,4,16,31,15,034,47,34,,,39,36,,,43,40,,,39*4D
1753534820715;N;$BDGSV,4,1,16,05,08,109,34,06,25,043,44,09,31,058,43,11,14,170,37*68
1753534820715;N;$BDGSV,4,2,16,14,88,210,42,16,25,041,45,21,12,065,45,26,11,095,47*64
1753534820715;N;$BDGSV,4,3,16,27,21,317,40,28,51,275,42,33,59,244,42,36,,,35*5C
1753534820715;N;$BDGSV,4,4,16,39,18,030,44,42,61,067,48,43,33,190,40,45,13,041,48*62
1753534820717;N;$GNRMC,130019.000,A,5318.36488,N,00607.71556,W,5.04,236.95,260725,,*04
1753534820854;N;$IIRMC,130005,A,5318.371,N,00607.687,W,04.7,264,260725,01,W,A*0F
1753534820890;N;$IIVHW,,,259,M,05.7,N,,*68
1753534820910;N;!AIVDM,1,1,,B,13m2gD8000OSqOtNOpe009Bb08<>,0*02
1753534821016;N;!AIVDM,1,1,,A,402HVp1vUu=0DwT=qtNRUbG005`0,0*42
1753534821401;N;$GNRMC,130020.000,A,5318.36428,N,00607.71765,W,5.02,249.21,260725,,*07
1753534821403;N;$IIVLW,01609,N,001.1,N*5D
1753534821425;N;$IIVWR,040,R,13.7,N,,,,*60
1753534821458;N;$IIDPT,011.9,-1.2,*4B
1753534821721;N;$IIGLL,5318.371,N,00607.687,W,130005,A,A*47
1753534821722;N;$IIHDG,260,,,01,W*05
1753534821723;N;$IIMTW,+16.0,C*3F
1753534821723;N;$IIMWV,040,R,13.7,N,A*12
1753534821818;N;$IIMWV,063,T,09.3,N,A*1A
1753534821884;N;$IIRMC,130005,A,5318.371,N,00607.687,W,04.7,264,260725,01,W,A*0F
1753534822135;N;$GNGGA,130021.000,5318.36371,N,00607.71972,W,1,25,0.5,4.3,M,55.8,M,,*58
1753534822153;N;$GNRMC,130021.000,A,5318.36371,N,00607.71972,W,4.86,244.27,260725,,*03
1753534822357;N;$IIVHW,,,260,M,05.8,N,,*6D
1753534822424;N;$IIVLW,01609,N,001.1,N*5D
1753534822569;N;$IIVWR,040,R,14.1,N,,,,*61
1753534822570;N;$IIDPT,011.9,-1.2,*4B
1753534822623;N;$IIGLL,5318.371,N,00607.687,W,130005,A,A*47
1753534822656;N;$IIHDG,260,,,01,W*05
1753534822745;N;$IIMTW,+16.0,C*3F
1753534822755;N;$IIMWV,040,R,14.1,N,A*13
1753534822910;N;$IIMWV,061,T,09.8,N,A*13
1753534823138;N;$GNRMC,130022.000,A,5318.36324,N,00607.72172,W,4.50,250.18,260725,,*09
1753534823457;N;$IIRMC,130005,A,5318.371,N,00607.687,W,04.8,244,260725,01,W,A*02
1753534823490;N;$IIVHW,,,261,M,05.8,N,,*6C
1753534823557;N;$IIVLW,01609,N,001.1,N*5D
1753534823623;N;$IIVWR,041,R,14.4,N,,,,*65
1753534823769;N;$IIDPT,011.9,-1.2,*4B
1753534823771;N;$IIGLL,5318.371,N,00607.687,W,130005,A,A*47
1753534823789;N;$IIHDG,261,,,01,W*04
1753534823893;N;$IIMTW,+16.0,C*3F
1753534823894;N;$IIMWV,041,R,14.4,N,A*17
1753534824125;N;$GNRMC,130023.000,A,5318.36279,N,00607.72366,W,4.53,248.23,260725,,*04
1753534824358;N;$IIMWV,062,T,10.7,N,A*17
1753534824490;N;$IIRMC,130005,A,5318.371,N,00607.687,W,04.8,244,260725,01,W,A*02
1753534824536;N;$GPRMB,A,0.18,L,3,4,5318.36,N,00609.00,W,0.8,269.2,4.3,V,A*42
1753534824538;N;$GPAPB,A,A,0.18,L,N,V,,282.4,T,4,269.2,T,269.2,T*45
1753534824557;N;$IIVHW,,,260,M,05.8,N,,*6D
1753534824929;N;$IIVLW,01609,N,001.1,N*5D
1753534824930;N;$IIVWR,040,R,14.6,N,,,,*66
1753534824931;N;$IIDPT,011.9,-1.2,*4B
1753534824932;N;$IIGLL,5318.371,N,00607.687,W,130005,A,A*47
1753534824932;N;$IIHDG,260,,,01,W*05
1753534824933;N;$IIMTW,+16.0,C*3F
1753534825129;N;$GPGSA,A,3,03,04,06,09,11,17,19,20,21,31,,,0.9,0.5,0.7*3C
1753534825146;N;$BDGSA,A,3,05,06,09,11,14,16,21,26,27,28,33,39,0.9,0.5,0.7*22
1753534825163;N;$GPGSV,4,1,16,01,,,37,03,29,087,46,04,63,078,46,06,69,277,42*4A
1753534825179;N;$GPGSV,4,2,16,07,05,162,,09,66,188,45,11,32,304,39,17,15,207,38*76
1753534825668;N;$GPGSV,4,3,16,19,29,226,37,20,05,279,20,21,09,270,22,25,,,35*4F
1753534825669;N;$GPGSV,4,4,16,31,15,034,45,34,,,39,36,,,43,40,,,39*4F
1753534825669;N;$BDGSV,4,1,16,05,08,109,42,06,25,043,44,09,31,058,42,11,14,170,36*69
1753534825669;N;$BDGSV,4,2,16,14,88,209,42,16,25,041,47,21,12,065,45,26,11,095,39*67
1753534825669;N;$BDGSV,4,3,16,27,21,317,37,28,51,275,42,33,59,244,43,36,,,31*59
1753534825670;N;$BDGSV,4,4,16,39,18,030,47,42,61,067,47,43,32,190,40,45,13,041,49*6E
1753534825671;N;$GNRMC,130024.000,A,5318.36233,N,00607.72566,W,4.56,248.93,260725,,*05
1753534825672;N;$IIMWV,039,R,14.5,N,A*19
1753534825674;N;$IIMWV,060,T,10.7,N,A*15
1753534825674;N;$IIRMB,A,0.18,L,,4       ,,,,,000.80,269,04.3,V,A*76
1753534825675;N;$IIRMC,130005,A,5318.371,N,00607.687,W,04.8,244,260725,01,W,A*02
1753534825805;N;$IIVHW,,,261,M,05.8,N,,*6C
1753534825806;N;$IIVLW,01609,N,001.1,N*5D
1753534825823;N;$IIVWR,039,R,14.5,N,,,,*6B
1753534825875;N;$IIDPT,011.9,-1.2,*4B
1753534826345;N;$GNRMC,130025.000,A,5318.36178,N,00607.72767,W,4.60,242.41,260725,,*0B
1753534826346;N;!AIVDO,1,1,,B,B8<Qc=h0;Gpw7L7`20NKUt<03P06,0*2E
1753534826346;N;!AIVDO,1,1,,A,H8<Qc=h8h4<e<PDE00000000000,2*6D
1753534826347;N;!AIVDO,1,1,,B,H8<Qc=lT?>G100059F6q00102210,0*16
1753534826501;N;$IIGLL,5318.371,N,00607.687,W,130005,A,A*47
1753534826502;N;$IIHDG,261,,,01,W*04
1753534826502;N;$IIMTW,+16.0,C*3F
1753534826621;N;$IIMWV,038,R,14.7,N,A*1A
1753534826623;N;$IIMWV,059,T,10.6,N,A*1E
1753534827042;N;$IIRMC,130005,A,5318.371,N,00607.687,W,04.8,244,260725,01,W,A*02
1753534827042;N;$IIVHW,,,261,M,05.8,N,,*6C
1753534827043;N;$IIVLW,01609,N,001.1,N*5D
1753534827044;N;$IIVWR,038,R,14.7,N,,,,*68
1753534827157;N;$GNRMC,130026.000,A,5318.36130,N,00607.72973,W,4.71,251.41,260725,,*0D
1753534827501;N;$IIDPT,011.9,-1.2,*4B
1753534827503;N;$IIGLL,5318.371,N,00607.687,W,130005,A,A*47
1753534827504;N;$IIHDG,261,,,01,W*04
1753534827524;N;$IIMTW,+16.0,C*3F
1753534827681;N;$IIMWV,038,R,14.4,N,A*19
1753534827682;N;$IIMWV,057,T,10.7,N,A*11
1753534827790;N;$IIRMC,130005,A,5318.371,N,00607.687,W,04.8,244,260725,01,W,A*02
1753534827953;N;$IIVHW,,,261,M,05.8,N,,*6C
1753534827954;N;$IIVLW,01609,N,001.1,N*5D
1753534828134;N;$GNRMC,130027.000,A,5318.36086,N,00607.73180,W,4.69,249.99,260725,,*00
1753534828357;N;$IIVWR,039,R,14.3,N,,,,*6D
1753534828423;N;$IIDPT,011.9,-1.2,*4B
1753534828490;N;$IIGLL,5318.371,N,00607.687,W,130005,A,A*47
1753534828556;N;$IIHDG,261,,,01,W*04
1753534828589;N;$IIMTW,+16.0,C*3F
1753534828667;N;$IIMWV,039,R,14.3,N,A*1F
1753534828702;N;$IIMWV,058,T,10.4,N,A*1D
1753534828825;N;$IIRMC,130005,A,5318.371,N,00607.687,W,04.8,244,260725,01,W,A*02
1753534828885;N;$IIVHW,,,261,M,05.8,N,,*6C
1753534829129;N;$GNRMC,130028.000,A,5318.36044,N,00607.73374,W,4.33,249.44,260725,,*07
1753534829357;N;$IIVLW,01609,N,001.1,N*5D
1753534829423;N;$IIVWR,039,R,14.6,N,,,,*68
1753534829457;N;$IIDPT,011.9,-1.2,*4B
1753534829557;N;$IIGLL,5318.371,N,00607.687,W,130005,A,A*47
1753534829574;N;$GPRMB,A,0.18,L,3,4,5318.36,N,00609.00,W,0.8,269.2,4.1,V,A*40
1753534829575;N;$GPAPB,A,A,0.18,L,N,V,,282.4,T,4,269.2,T,269.2,T*45
1753534829623;N;$IIHDG,260,,,01,W*05
1753534829941;N;$IIMTW,+16.0,C*3F
1753534829942;N;$IIMWV,039,R,14.6,N,A*1A
1753534829943;N;$IIMWV,060,T,10.3,N,A*11
1753534829945;N;$IIRMC,130005,A,5318.371,N,00607.687,W,04.8,244,260725,01,W,A*02
1753534830003;N;!AIVDM,1,1,,A,H3fK6AA<TiHE:1=A84p@0000000,2*33
1753534830125;N;$GPGSA,A,3,03,04,06,09,11,17,19,20,21,31,,,0.9,0.5,0.7*3C
1753534830142;N;$BDGSA,A,3,05,06,09,11,14,16,21,26,27,28,33,39,0.9,0.5,0.7*22
1753534830158;N;$GPGSV,4,1,16,01,,,36,03,29,087,46,04,63,078,46,06,69,277,43*4A
1753534830584;N;$GPGSV,4,2,16,07,05,162,,09,66,188,45,11,33,304,40,17,15,207,39*78
1753534830584;N;$GPGSV,4,3,16,19,29,226,39,20,05,279,20,21,09,270,24,25,,,37*45
1753534830586;N;$GPGSV,4,4,16,31,15,034,42,34,,,39,36,,,42,40,,,40*47
1753534830586;N;$BDGSV,4,1,16,05,08,109,42,06,25,043,44,09,31,058,40,11,14,170,36*6B
1753534830586;N;$BDGSV,4,2,16,14,88,209,42,16,25,041,47,21,12,065,28,26,12,095,42*63
1753534830586;N;$BDGSV,4,3,16,27,21,317,37,28,51,275,41,33,59,244,42,36,,,31*5B
1753534830586;N;$BDGSV,4,4,16,39,18,030,47,42,61,067,48,43,32,190,39,45,13,041,47*61
1753534830588;N;$GNRMC,130029.000,A,5318.35999,N,00607.73557,W,4.18,245.28,260725,,*04
1753534830589;N;$IIVHW,,,261,M,05.9,N,,*6D
1753534830589;N;$IIVLW,01609,N,001.1,N*5D
1753534830590;N;$IIVWR,039,R,14.4,N,,,,*6A
1753534830590;N;$IIDPT,011.9,-1.2,*4B
1753534830733;N;$IIGLL,5318.371,N,00607.687,W,130005,A,A*47
1753534830734;N;$IIHDG,261,,,01,W*04
1753534830734;N;$IIMTW,+16.0,C*3F
1753534830757;N;$IIMWV,039,R,14.4,N,A*18
1753534831370;N;$IIMWV,059,T,10.5,N,A*1D
1753534831371;N;$IIRMB,A,0.18,L,,4       ,,,,,000.80,269,04.1,V,A*74
1753534831372;N;!AIVDM,1,1,,B,402HVp1vUu=0NwT=qtNRUbG00L20,0*60
1753534831373;N;$GNRMC,130030.000,A,5318.35950,N,00607.73741,W,4.29,245.08,260725,,*0C
1753534831459;N;$IIRMC,130005,A,5318.371,N,00607.687,W,04.3,249,260725,01,W,A*04
1753534831492;N;$IIVHW,,,262,M,05.7,N,,*60
1753534831550;N;!AIVDM,1,1,,A,13m2gD8002OSqOtNOpbW29C008BM,0*3F
1753534831558;N;$IIVLW,01609,N,001.1,N*5D
1753534832153;N;$IIVWR,039,R,14.6,N,,,,*68
1753534832154;N;$IIDPT,011.7,-1.2,*45
1753534832155;N;$IIGLL,5318.371,N,00607.687,W,130005,A,A*47
1753534832155;N;$IIHDG,262,,,01,W*07
1753534832156;N;$IIMTW,+16.0,C*3F
1753534832157;N;$IIMWV,039,R,14.6,N,A*1A
1753534832158;N;!AIVDM,1,1,,B,B3MC52P09opwqO7`4rV1gwgQh<0o,0*09
1753534832159;N;!AIVDM,1,1,,A,H3fKDDDTC=D5a0i59eojnn0h5300,0*65
1753534832160;N;$GNGGA,130031.000,5318.35900,N,00607.73931,W,1,25,0.5,4.4,M,55.8,M,,*54
1753534832161;N;$GNRMC,130031.000,A,5318.35900,N,00607.73931,W,4.39,245.83,260725,,*03
1753534832359;N;$IIMWV,058,T,10.6,N,A*1F
1753534832458;N;$IIRMB,A,0.18,L,,4       ,,,,,000.80,269,04.1,V,A*74
1753534832624;N;$IIRMC,130005,A,5318.371,N,00607.687,W,04.3,249,260725,01,W,A*04
1753534832657;N;$IIVHW,,,265,M,05.6,N,,*66
1753534832723;N;$IIVLW,01609,N,001.1,N*5D
1753534832790;N;$IIVWR,039,R,14.5,N,,,,*6B
1753534832941;N;$IIDPT,011.7,-1.2,*45
1753534832942;N;$IIGLL,5318.371,N,00607.687,W,130005,A,A*47
1753534833137;N;$GNRMC,130032.000,A,5318.35848,N,00607.74117,W,4.38,243.92,260725,,*01
1753534833229;N;!AIVDM,1,1,,B,H3ILIH0aD8ThDD0000000000000,2*79
1753534833358;N;$IIHDG,265,,,01,W*00
1753534833391;N;$IIMTW,+16.0,C*3F
1753534833473;N;$IIMWV,038,R,14.9,N,A*14
1753534833492;N;$IIMWV,058,T,10.6,N,A*1F
1753534833624;N;$IIRMB,A,0.18,L,,4       ,,,,,000.80,269,04.1,V,A*74
1753534833757;N;$IIRMC,130005,A,5318.371,N,00607.687,W,04.3,249,260725,01,W,A*04
1753534833823;N;$IIVHW,,,265,M,05.7,N,,*67
1753534833856;N;$IIVLW,01609,N,001.1,N*5D
1753534833912;N;$IIVWR,038,R,14.9,N,,,,*66
1753534834131;N;$GNRMC,130033.000,A,5318.35809,N,00607.74305,W,4.26,256.83,260725,,*0F
1753534834357;N;$IIDPT,011.7,-1.2,*45
1753534834457;N;$IIGLL,5318.371,N,00607.687,W,130005,A,A*47
1753534834490;N;$IIHDG,265,,,01,W*00
1753534834523;N;$IIMTW,+16.0,C*3F
1753534834590;N;$IIMWV,038,R,14.9,N,A*14
1753534834611;N;$GPRMB,A,0.18,L,3,4,5318.36,N,00609.00,W,0.8,269.2,4.2,V,A*43
1753534834614;N;$GPAPB,A,A,0.18,L,N,V,,282.4,T,4,269.2,T,269.2,T*45
1753534834661;N;!AIVDM,1,1,,B,B3fK`Q00>OpwgKW`49PO8DR5oP06,0*15
1753534834663;N;$IIMWV,057,T,10.9,N,A*1F
1753534834797;N;$IIRMB,A,0.18,L,,4       ,,,,,000.80,269,04.1,V,A*74
1753534834933;N;$IIRMC,130005,A,5318.371,N,00607.687,W,04.3,249,260725,01,W,A*04
1753534835125;N;$GPGSA,A,3,03,04,06,09,11,17,19,20,21,31,,,0.9,0.5,0.7*3C
1753534835141;N;$BDGSA,A,3,05,06,09,11,14,16,21,26,27,28,33,39,0.9,0.5,0.7*22
1753534835544;N;$GPGSV,4,1,16,01,,,36,03,29,087,47,04,63,077,47,06,69,277,43*45
1753534835544;N;$GPGSV,4,2,16,07,05,162,,09,66,188,43,11,33,304,38,17,15,207,37*7F
1753534835545;N;$GPGSV,4,3,16,19,29,226,38,20,05,279,20,21,09,270,24,25,,,37*44
1753534835545;N;$GPGSV,4,4,16,31,15,034,46,34,,,39,36,,,42,40,,,40*43
1753534835545;N;$BDGSV,4,1,16,05,08,109,40,06,25,043,40,09,31,058,42,11,14,170,39*60
1753534835546;N;$BDGSV,4,2,16,14,88,209,42,16,25,041,44,21,11,065,31,26,12,095,37*69
1753534835546;N;$BDGSV,4,3,16,27,21,317,37,28,51,275,38,33,59,244,43,36,,,30*55
1753534835546;N;$BDGSV,4,4,16,39,18,030,46,42,61,067,48,43,32,190,40,45,13,041,49*60
1753534835547;N;$GNRMC,130034.000,A,5318.35789,N,00607.74491,W,3.98,263.33,260725,,*0A
1753534835549;N;$IIVHW,,,265,M,05.6,N,,*66
1753534835549;N;$IIVLW,01609,N,001.1,N*5D
1753534835550;N;$IIVWR,038,R,14.6,N,,,,*69
1753534835550;N;$IIDPT,011.7,-1.2,*45
1753534835681;N;$IIGLL,5318.371,N,00607.687,W,130005,A,A*47
1753534835682;N;$IIHDG,265,,,01,W*00
1753534835690;N;$IIMTW,+16.0,C*3F
1753534835757;N;$IIMWV,038,R,14.6,N,A*1B
1753534836310;N;$IIMWV,057,T,11.0,N,A*17
1753534836311;N;$IIRMB,A,0.18,L,,4       ,,,,,000.80,269,04.1,V,A*74
1753534836312;N;$GNRMC,130035.000,A,5318.35774,N,00607.74663,W,3.63,262.26,260725,,*07
1753534836313;N;!AIVDO,1,1,,A,B8<Qc=h09opw5sW`1ubTV3i03P06,0*3E
1753534836313;N;!AIVDO,1,1,,B,H8<Qc=h8h4<e<PDE00000000000,2*6E
1753534836314;N;!AIVDO,1,1,,A,H8<Qc=lT?>G100059F6q00102210,0*15
1753534836458;N;$IIRMC,130005,A,5318.371,N,00607.687,W,04.3,249,260725,01,W,A*04
1753534836491;N;$IIVHW,,,265,M,05.4,N,,*64
1753534836557;N;$IIVLW,01609,N,001.1,N*5D
1753534836624;N;$IIVWR,035,R,14.7,N,,,,*65
1753534836937;N;$IIDPT,011.7,-1.2,*45
1753534836938;N;$IIGLL,5318.371,N,00607.687,W,130005,A,A*47
1753534836939;N;$IIHDG,265,,,01,W*00
1753534836939;N;$IIMTW,+16.0,C*3F
1753534836940;N;$IIMWV,035,R,14.7,N,A*17
1753534837129;N;$GNRMC,130036.000,A,5318.35753,N,00607.74831,W,3.62,259.96,260725,,*0A
1753534837359;N;$IIMWV,052,T,10.6,N,A*15
1753534837458;N;$IIRMB,A,0.18,L,,4       ,,,,,000.80,269,04.1,V,A*74
1753534837624;N;$IIRMC,130005,A,5318.371,N,00607.687,W,04.3,249,260725,01,W,A*04
1753534837657;N;$IIVHW,,,265,M,05.4,N,,*64
1753534837723;N;$IIVLW,01609,N,001.1,N*5D
1753534837790;N;$IIVWR,037,R,14.1,N,,,,*61
1753534837937;N;$IIDPT,011.7,-1.2,*45
1753534837938;N;$IIGLL,5318.371,N,00607.687,W,130005,A,A*47
1753534838127;N;$GNRMC,130037.000,A,5318.35730,N,00607.75003,W,3.70,257.03,260725,,*07
1753534838357;N;$IIHDG,261,,,01,W*04
1753534838390;N;$IIMTW,+16.0,C*3F
1753534838456;N;$IIMWV,039,R,13.7,N,A*1C
1753534838490;N;$IIMWV,055,T,10.2,N,A*16
1753534838623;N;$IIRMC,130005,A,5318.371,N,00607.687,W,04.3,249,260725,01,W,A*04
1753534838689;N;$IIVHW,,,261,M,05.3,N,,*67
1753534838755;N;$IIVLW,01609,N,001.1,N*5D
1753534838821;N;$IIVWR,039,R,13.7,N,,,,*6E
1753534838937;N;$IIDPT,011.7,-1.2,*45
1753534839135;N;$GNRMC,130038.000,A,5318.35690,N,00607.75185,W,4.01,245.41,260725,,*08
1753534839390;N;$IIGLL,5318.371,N,00607.687,W,130005,A,A*47
1753534839457;N;$IIHDG,260,,,01,W*05
1753534839490;N;$IIMTW,+16.0,C*3F
1753534839523;N;$IIMWV,039,R,13.2,N,A*19
1753534839597;N;$IIMWV,058,T,10.1,N,A*18
1753534839647;N;$GPRMB,A,0.18,L,3,4,5318.36,N,00609.00,W,0.8,269.2,3.7,V,A*41
1753534839648;N;$GPAPB,A,A,0.18,L,N,V,,282.4,T,4,269.2,T,269.2,T*45
1753534839729;N;$IIRMC,130005,A,5318.371,N,00607.687,W,04.3,249,260725,01,W,A*04
1753534839805;N;$IIVHW,,,260,M,05.1,N,,*64
1753534840117;N;$IIVLW,01609,N,001.1,N*5D
1753534840118;N;$IIVWR,039,R,13.2,N,,,,*6B
1753534840122;N;$GPGSA,A,3,03,04,06,09,11,17,19,20,21,31,,,0.9,0.5,0.7*3C
1753534840139;N;$BDGSA,A,3,05,06,09,11,14,16,21,26,27,28,33,39,0.9,0.5,0.7*22
1753534840292;N;$GPGSV,4,1,16,01,,,38,03,29,087,45,04,62,077,46,06,69,277,43*49
1753534840293;N;$GPGSV,4,2,16,07,05,162,,09,66,188,44,11,33,304,39,17,15,207,38*76
1753534840293;N;$GPGSV,4,3,16,19,29,226,41,20,05,279,20,21,10,270,28,25,,,41*4F
1753534840294;N;$GPGSV,4,4,16,31,15,034,45,34,,,39,36,,,42,40,,,40*40
1753534840294;N;$BDGSV,4,1,16,05,08,109,40,06,25,043,43,09,31,058,43,11,14,170,41*6D
1753534840294;N;$BDGSV,4,2,16,14,88,208,42,16,25,041,44,21,11,065,43,26,12,095,44*69
1753534840294;N;$BDGSV,4,3,16,27,21,317,37,28,51,275,42,33,59,244,43,36,,,30*58
1753534840294;N;$BDGSV,4,4,16,39,18,030,47,42,61,067,47,43,32,190,39,45,13,041,50*68
1753534840297;N;$GNRMC,130039.000,A,5318.35626,N,00607.75352,W,4.16,230.47,260725,,*0E
1753534840630;N;$IIDPT,011.6,-1.2,*44
1753534840631;N;$IIGLL,5318.371,N,00607.687,W,130005,A,A*47
1753534840632;N;$IIHDG,260,,,01,W*05
1753534840633;N;$IIMTW,+16.0,C*3F
1753534840634;N;$IIMWV,039,R,13.5,N,A*1E
1753534841074;N;$IIMWV,059,T,09.6,N,A*16
1753534841075;N;$IIRMB,A,0.18,L,,4       ,,,,,000.80,269,03.7,V,A*75
1753534841076;N;$IIRMC,130005,A,5318.371,N,00607.687,W,04.3,249,260725,01,W,A*04
1753534841082;N;!AIVDM,1,1,,A,H3fK6ADN47I53RF59jmpk0000000,0*75
1753534841309;N;$GNRMC,130040.000,A,5318.35565,N,00607.75515,W,4.05,241.58,260725,,*0B
1753534841358;N;$IIVHW,,,260,M,04.9,N,,*6D
1753534841424;N;$IIVLW,01609,N,001.1,N*5D
1753534841490;N;$IIVWR,042,R,14.1,N,,,,*63
1753534841985;N;$IIDPT,011.6,-1.2,*44
1753534841986;N;$IIGLL,5318.371,N,00607.687,W,130005,A,A*47
1753534841987;N;$IIHDG,260,,,01,W*05
1753534841987;N;$IIMTW,+16.0,C*3F
1753534841988;N;$IIMWV,042,R,14.1,N,A*11
1753534841990;N;$IIMWV,057,T,10.1,N,A*17
1753534842124;N;$GNGGA,130041.000,5318.35529,N,00607.75693,W,1,25,0.5,4.6,M,55.8,M,,*57
1753534842169;N;$GNRMC,130041.000,A,5318.35529,N,00607.75693,W,4.00,257.65,260725,,*03
1753534842458;N;$IIRMC,130005,A,5318.371,N,00607.687,W,04.0,241,260725,01,W,A*0F
1753534842491;N;$IIVHW,,,259,M,05.0,N,,*6F
1753534842605;N;$IIVLW,01609,N,001.1,N*5D
1753534842623;N;$IIVWR,043,R,14.0,N,,,,*63
1753534842793;N;$IIDPT,011.6,-1.2,*44
1753534842794;N;$IIGLL,5318.371,N,00607.687,W,130005,A,A*47
1753534842794;N;$IIHDG,259,,,01,W*0F
1753534842856;N;$IIMTW,+16.0,C*3F
1753534842969;N;$IIMWV,043,R,14.0,N,A*11
1753534843128;N;$GNRMC,130042.000,A,5318.35482,N,00607.75881,W,4.26,242.55,260725,,*0E
1753534843307;N;!AIVDM,1,1,,A,H3fKcki851@u800000000000000,2*22
1753534843359;N;$IIMWV,061,T,10.8,N,A*1B
1753534843418;N;!AIVDM,1,1,,B,H3ILIH4TC=D7:bN618khnk0h5000,0*45
1753534843457;N;$IIRMB,A,0.18,L,,4       ,,,,,000.80,269,03.7,V,A*75
1753534843525;N;!AIVDM,1,1,,B,B3IJL1P0?OpwF1W`2RfNowmWkP06,0*2A
1753534843781;N;$IIRMC,130005,A,5318.371,N,00607.687,W,04.0,241,260725,01,W,A*0F
1753534843782;N;$IIVHW,,,258,M,05.0,N,,*6E
1753534843783;N;$IIVLW,01609,N,001.1,N*5D
1753534843897;N;$IIVWR,044,R,14.1,N,,,,*65
1753534843898;N;$IIDPT,011.6,-1.2,*44
1753534844057;N;$IIGLL,5318.371,N,00607.687,W,130005,A,A*47
1753534844125;N;$GNRMC,130043.000,A,5318.35409,N,00607.76064,W,4.53,231.74,260725,,*09
1753534844358;N;$IIHDG,256,,,01,W*00
1753534844391;N;$IIMTW,+16.0,C*3F
1753534844469;N;$IIMWV,045,R,14.4,N,A*13
1753534844491;N;$IIMWV,063,T,10.9,N,A*18
1753534844624;N;$IIRMB,A,0.18,L,,4       ,,,,,000.80,269,03.7,V,A*75
1753534844683;N;$GPRMB,A,0.15,L,3,4,5318.36,N,00609.00,W,0.7,270.5,3.5,V,A*4E
1753534844684;N;$GPAPB,A,A,0.15,L,N,V,,282.4,T,4,270.5,T,270.5,T*48
1753534844757;N;$IIRMC,130005,A,5318.371,N,00607.687,W,04.0,241,260725,01,W,A*0F
1753534845117;N;$IIVHW,,,256,M,05.1,N,,*61
1753534845118;N;$IIVLW,01609,N,001.1,N*5D
1753534845118;N;$IIVWR,045,R,14.4,N,,,,*61
1753534845136;N;$GPGSA,A,3,03,04,06,09,11,17,19,20,21,31,,,0.9,0.5,0.7*3C
1753534845292;N;$BDGSA,A,3,05,06,09,11,14,16,21,26,27,28,33,39,0.9,0.5,0.7*22
1753534845292;N;$GPGSV,4,1,16,01,,,39,03,29,087,46,04,62,077,47,06,69,277,44*4D
1753534845292;N;$GPGSV,4,2,16,07,05,162,,09,66,188,45,11,33,304,38,17,15,207,38*76
1753534845293;N;$GPGSV,4,3,16,19,29,226,39,20,05,279,26,21,10,270,20,25,,,40*4F
1753534845293;N;$GPGSV,4,4,16,31,15,034,48,34,,,39,36,,,42,40,,,40*4D
1753534845293;N;$BDGSV,4,1,16,05,08,109,40,06,25,043,42,09,31,058,45,11,14,170,39*65
1753534845294;N;$BDGSV,4,2,16,14,88,208,42,16,25,041,44,21,11,065,47,26,12,095,50*68
1753534845294;N;$BDGSV,4,3,16,27,21,317,37,28,51,275,40,33,59,244,39,36,,,30*57
1753534845294;N;$BDGSV,4,4,16,39,18,030,43,42,61,067,49,43,32,190,39,45,13,041,46*65
1753534845545;N;$GNRMC,130044.000,A,5318.35340,N,00607.76250,W,4.65,240.11,260725,,*01
1753534845546;N;!AIVDM,1,1,,A,B3fQ41P0;?pwtj7`6huqqWT5oP06,0*6B
1753534845547;N;$IIDPT,011.6,-1.2,*44
1753534845548;N;$IIGLL,5318.371,N,00607.687,W,130005,A,A*47
1753534845549;N;$IIHDG,256,,,01,W*00
1753534845549;N;$IIMTW,+16.0,C*3F
1753534846113;N;$IIMWV,047,R,15.0,N,A*14
1753534846115;N;$IIMWV,064,T,11.3,N,A*14
1753534846116;N;$IIRMB,A,0.15,L,,4       ,,,,,000.70,270,03.5,V,A*7D
1753534846117;N;$IIRMC,130005,A,5318.371,N,00607.687,W,04.0,241,260725,01,W,A*0F
1753534846118;N;!AIVDM,1,1,,A,H3fK2E1LPU@F0lU<<PTDH000000,2*7A
1753534846457;N;$GNRMC,130045.000,A,5318.35279,N,00607.76448,W,4.79,243.21,260725,,*09
1753534846458;N;!AIVDO,1,1,,A,B8<Qc=h0;Wpw4SW`1rrF5pF03P06,0*2F
1753534846458;N;!AIVDO,1,1,,B,H8<Qc=h8h4<e<PDE00000000000,2*6E
1753534846459;N;!AIVDO,1,1,,A,H8<Qc=lT?>G100059F6q00102210,0*15
1753534846460;N;$IIVHW,,,256,M,05.6,N,,*66
1753534846461;N;$IIVLW,01609,N,001.1,N*5D
1753534846917;N;$IIVWR,047,R,15.4,N,,,,*62
1753534846918;N;$IIDPT,011.6,-1.2,*44
1753534846918;N;$IIGLL,5318.353,N,00607.762,W,130044,A,A*48
1753534846919;N;$IIHDG,256,,,01,W*00
1753534846920;N;$IIMTW,+16.0,C*3F
1753534846920;N;$IIMWV,047,R,15.4,N,A*10
1753534846922;N;$IIMWV,066,T,11.9,N,A*1C
1753534847285;N;!AIVDM,1,1,,A,H3fK2E4U4I138D059BAn000h4220,0*68
1753534847286;N;$GNRMC,130046.000,A,5318.35207,N,00607.76633,W,4.70,231.99,260725,,*02
1753534847458;N;$IIRMC,130045,A,5318.352,N,00607.764,W,04.7,243,260725,01,W,A*03
1753534847491;N;$IIVHW,,,256,M,05.8,N,,*68
1753534847961;N;$IIVLW,01609,N,001.2,N*5E
1753534847962;N;$IIVWR,047,R,15.6,N,,,,*60
1753534847962;N;$IIDPT,011.4,-1.2,*46
1753534847963;N;$IIGLL,5318.352,N,00607.764,W,130045,A,A*4E
1753534847964;N;$IIHDG,256,,,01,W*00
1753534847964;N;$IIMTW,+16.0,C*3F
1753534847965;N;$IIMWV,047,R,15.6,N,A*12
1753534848144;N;$GNRMC,130047.000,A,5318.35133,N,00607.76826,W,5.03,238.07,260725,,*06
1753534848360;N;$IIMWV,067,T,12.2,N,A*15
1753534848458;N;$IIRMB,A,0.15,L,,4       ,,,,,000.70,270,03.5,V,A*7D
1753534848625;N;$IIRMC,130045,A,5318.352,N,00607.764,W,04.7,243,260725,01,W,A*03
1753534848657;N;$IIVHW,,,258,M,05.8,N,,*66
1753534848725;N;$IIVLW,01609,N,001.2,N*5E
1753534848790;N;$IIVWR,049,R,15.7,N,,,,*6F
1753534848937;N;$IIDPT,011.4,-1.2,*46
1753534848938;N;$IIGLL,5318.352,N,00607.764,W,130045,A,A*4E
1753534849122;N;$GNRMC,130048.000,A,5318.35067,N,00607.77027,W,4.94,242.16,260725,,*03
1753534849357;N;$IIHDG,257,,,01,W*01
1753534849390;N;$IIMTW,+16.0,C*3F
1753534849457;N;$IIMWV,052,R,16.6,N,A*15
1753534849490;N;$IIMWV,069,T,12.5,N,A*1C
1753534849623;N;$IIRMB,A,0.15,L,,4       ,,,,,000.70,270,03.5,V,A*7D
1753534849720;N;$GPRMB,A,0.15,L,3,4,5318.36,N,00609.00,W,0.7,270.7,4.3,V,A*4D
1753534849722;N;$GPAPB,A,A,0.15,L,N,V,,282.4,T,4,270.7,T,270.7,T*48
1753534849756;N;$IIRMC,130045,A,5318.352,N,00607.764,W,04.7,243,260725,01,W,A*03
1753534849869;N;$IIVHW,,,257,M,06.0,N,,*62
1753534849870;N;$IIVLW,01609,N,001.2,N*5E
1753534850181;N;$IIVWR,052,R,16.6,N,,,,*67
1753534850181;N;$GPGSA,A,3,03,04,06,09,11,17,19,20,21,31,,,0.9,0.5,0.7*3C
1753534850181;N;$BDGSA,A,3,05,06,09,11,14,16,21,26,27,28,33,39,0.9,0.5,0.7*22
1753534850181;N;$GPGSV,4,1,16,01,,,40,03,29,087,47,04,62,077,47,06,69,277,45*43
1753534850182;N;$GPGSV,4,2,16,07,05,162,,09,66,188,45,11,33,304,39,17,15,207,38*77
1753534850300;N;$GPGSV,4,3,16,19,29,226,36,20,05,279,23,21,10,270,20,25,,,41*44
1753534850301;N;$GPGSV,4,4,16,31,15,034,49,34,,,39,36,,,42,40,,,40*4C
1753534850301;N;$BDGSV,4,1,16,05,08,109,41,06,25,043,43,09,31,058,43,11,14,170,40*6D
1753534850301;N;$BDGSV,4,2,16,14,88,207,43,16,25,041,44,21,11,065,50,26,12,095,49*68
1753534850301;N;$BDGSV,4,3,16,27,21,317,39,28,51,275,41,33,59,244,42,36,,,31*55
1753534850302;N;$BDGSV,4,4,16,39,18,030,43,42,61,067,47,43,32,190,39,45,13,041,42*6F
1753534850303;N;$GNRMC,130049.000,A,5318.35002,N,00607.77237,W,5.22,242.65,260725,,*0A
1753534850837;N;$IIDPT,011.4,-1.2,*46
1753534850838;N;$IIGLL,5318.352,N,00607.764,W,130045,A,A*4E
1753534850838;N;$IIHDG,258,,,01,W*0E
1753534850839;N;$IIMTW,+16.0,C*3F
1753534850840;N;$IIMWV,050,R,17.0,N,A*10
1753534850841;N;$IIMWV,072,T,13.7,N,A*15
1753534850842;N;$IIRMB,A,0.15,L,,4       ,,,,,000.70,270,04.3,V,A*7C
1753534851566;N;$IIRMC,130045,A,5318.352,N,00607.764,W,04.7,243,260725,01,W,A*03
1753534851566;N;$IIVHW,,,260,M,06.0,N,,*66
1753534851567;N;$IIVLW,01609,N,001.2,N*5E
1753534851568;N;$IIVWR,047,R,16.6,N,,,,*63
1753534851568;N;$IIDPT,011.4,-1.2,*46
1753534851569;N;!AIVDM,1,1,,B,402HVp1vUu=0jwT=qtNRUbG00<1q,0*76
1753534851570;N;!AIVDM,1,1,,A,13m2gD8000OSqOtNOpbP09AV0<0m,0*0A
1753534851571;N;$GNRMC,130050.000,A,5318.34923,N,00607.77451,W,5.53,234.56,260725,,*08
1753534851885;N;$IIGLL,5318.352,N,00607.764,W,130045,A,A*4E
1753534851886;N;$IIHDG,260,,,01,W*05
1753534851886;N;$IIMTW,+16.0,C*3F
1753534851887;N;$IIMWV,047,R,16.6,N,A*11
1753534851889;N;$IIMWV,070,T,13.8,N,A*18
1753534852153;N;$GNGGA,130051.000,5318.34849,N,00607.77676,W,1,25,0.5,4.6,M,55.8,M,,*55
1753534852154;N;$GNRMC,130051.000,A,5318.34849,N,00607.77676,W,5.53,244.54,260725,,*06
1753534852458;N;$IIRMC,130045,A,5318.352,N,00607.764,W,04.7,243,260725,01,W,A*03
1753534852491;N;$IIVHW,,,261,M,06.0,N,,*67
1753534852793;N;$IIVLW,01609,N,001.2,N*5E
1753534852794;N;$IIVWR,045,R,16.2,N,,,,*65
1753534852795;N;$IIDPT,011.4,-1.2,*46
1753534852795;N;$IIGLL,5318.352,N,00607.764,W,130045,A,A*4E
1753534852796;N;$IIHDG,261,,,01,W*04
1753534852854;N;$IIMTW,+16.0,C*3F
1753534852969;N;$IIMWV,045,R,16.2,N,A*17
1753534853137;N;$GNRMC,130052.000,A,5318.34792,N,00607.77908,W,5.40,249.35,260725,,*02
1753534853358;N;$IIMWV,065,T,12.7,N,A*12
1753534853490;N;$IIRMC,130045,A,5318.352,N,00607.764,W,04.7,243,260725,01,W,A*03
1753534853556;N;$IIVHW,,,260,M,06.1,N,,*67
1753534853622;N;$IIVLW,01609,N,001.2,N*5E
1753534853656;N;$IIVWR,045,R,16.5,N,,,,*62
1753534853797;N;$IIDPT,011.4,-1.2,*46
1753534853849;N;$IIGLL,5318.352,N,00607.764,W,130045,A,A*4E
1753534853853;N;$IIHDG,260,,,01,W*05
1753534853925;N;$IIMTW,+16.0,C*3F
1753534854029;N;!AIVDM,1,1,,B,H3q=>01@E<T4000000000000000,2*46
1753534854143;N;$GNRMC,130053.000,A,5318.34738,N,00607.78139,W,5.31,248.53,260725,,*01
1753534854358;N;$IIMWV,045,R,16.3,N,A*16
1753534854425;N;$IIMWV,065,T,12.9,N,A*1C
1753534854557;N;$IIRMC,130045,A,5318.352,N,00607.764,W,04.7,243,260725,01,W,A*03
1753534854623;N;$IIVHW,,,260,M,06.2,N,,*64
1753534854656;N;$IIVLW,01609,N,001.2,N*5E
1753534854722;N;$IIVWR,045,R,16.3,N,,,,*64
1753534854758;N;$GPRMB,A,0.15,L,3,4,5318.36,N,00609.00,W,0.7,270.6,4.2,V,A*4D
1753534854759;N;$GPAPB,A,A,0.15,L,N,V,,282.4,T,4,270.6,T,270.6,T*48
1753534854869;N;$IIDPT,011.3,-1.2,*41
1753534854870;N;$IIGLL,5318.352,N,00607.764,W,130045,A,A*4E
1753534855001;N;$IIHDG,260,,,01,W*05
1753534855126;N;$GPGSA,A,3,03,04,06,09,11,17,19,20,21,31,,,0.9,0.5,0.7*3C
1753534855143;N;$BDGSA,A,3,05,06,09,11,14,16,21,26,27,28,33,39,0.9,0.5,0.7*22
1753534855160;N;$GPGSV,4,1,16,01,,,35,03,29,087,47,04,62,077,47,06,69,276,44*41
1753534855688;N;$GPGSV,4,2,16,07,05,162,,09,66,188,45,11,33,304,40,17,15,207,39*78
1753534855688;N;$GPGSV,4,3,16,19,29,226,41,20,05,280,20,21,10,270,20,25,,,41*41
1753534855689;N;$GPGSV,4,4,16,31,15,034,46,34,,,39,36,,,42,40,,,39*4D
1753534855689;N;$BDGSV,4,1,16,05,08,109,43,06,25,043,41,09,31,058,43,11,14,170,38*62
1753534855689;N;$BDGSV,4,2,16,14,88,207,42,16,25,041,44,21,11,065,48,26,12,095,48*61
1753534855689;N;$BDGSV,4,3,16,27,21,317,37,28,51,275,41,33,59,244,39,36,,,33*55
1753534855690;N;$BDGSV,4,4,16,39,18,030,46,42,61,067,47,43,32,190,40,45,13,041,48*6E
1753534855691;N;$GNRMC,130054.000,A,5318.34682,N,00607.78366,W,5.28,246.15,260725,,*0A
1753534855692;N;$IIMTW,+16.0,C*3F
1753534855693;N;$IIMWV,042,R,15.7,N,A*16
1753534855694;N;$IIMWV,065,T,12.6,N,A*13
1753534855695;N;$IIRMC,130045,A,5318.352,N,00607.764,W,04.7,243,260725,01,W,A*03
1753534855696;N;$IIVHW,,,261,M,06.2,N,,*65
1753534855696;N;$IIVLW,01609,N,001.2,N*5E
1753534855837;N;$IIVWR,042,R,15.7,N,,,,*64
1753534855838;N;$IIDPT,011.2,-1.2,*40
1753534855887;N;$IIGLL,5318.352,N,00607.764,W,130045,A,A*4E
1753534856146;N;$GNRMC,130055.000,A,5318.34628,N,00607.78584,W,4.97,247.54,260725,,*00
1753534856585;N;!AIVDO,1,1,,A,B8<Qc=h0=7pw2r7`1njImsK03P06,0*53
1753534856586;N;!AIVDO,1,1,,B,H8<Qc=h8h4<e<PDE00000000000,2*6E
1753534856586;N;!AIVDO,1,1,,A,H8<Qc=lT?>G100059F6q00102210,0*15
1753534856587;N;$IIHDG,262,,,01,W*07
1753534856588;N;$IIMTW,+16.0,C*3F
1753534856589;N;$IIMWV,040,R,16.2,N,A*12
1753534856590;N;$IIMWV,063,T,11.7,N,A*17
1753534856689;N;$IIRMC,130045,A,5318.352,N,00607.764,W,04.7,243,260725,01,W,A*03
1753534856690;N;$IIVHW,,,262,M,06.2,N,,*66
1753534856754;N;$IIVLW,01609,N,001.2,N*5E
1753534856820;N;$IIVWR,040,R,16.2,N,,,,*60
1753534857249;N;$IIDPT,011.2,-1.2,*40
1753534857251;N;$GNRMC,130056.000,A,5318.34580,N,00607.78809,W,5.23,250.89,260725,,*02
1753534857391;N;$IIGLL,5318.352,N,00607.764,W,130045,A,A*4E
1753534857457;N;$IIHDG,264,,,01,W*01
1753534857490;N;$IIMTW,+16.0,C*3F
1753534857523;N;$IIMWV,039,R,16.1,N,A*1F
1753534857686;N;$IIMWV,059,T,12.0,N,A*1A
1753534857722;N;$IIRMC,130045,A,5318.352,N,00607.764,W,04.7,243,260725,01,W,A*03
1753534857787;N;$IIVHW,,,264,M,06.1,N,,*63
1753534857853;N;$IIVLW,01609,N,001.2,N*5E
1753534857891;N;$IIVWR,039,R,16.1,N,,,,*6D
1753534858144;N;$GNRMC,130057.000,A,5318.34535,N,00607.79035,W,5.13,251.10,260725,,*09
1753534858358;N;$IIDPT,011.0,-1.2,*42
1753534858457;N;$IIGLL,5318.352,N,00607.764,W,130045,A,A*4E
1753534858490;N;$IIHDG,265,,,01,W*00
1753534858523;N;$IIMTW,+16.0,C*3F
1753534858589;N;$IIMWV,038,R,16.0,N,A*1F
1753534858666;N;$IIMWV,058,T,11.9,N,A*11
1753534858788;N;$IIRMC,130045,A,5318.352,N,00607.764,W,04.7,243,260725,01,W,A*03
1753534858821;N;$IIVHW,,,265,M,06.1,N,,*62
1753534858881;N;$IIVLW,01609,N,001.2,N*5E
1753534859149;N;$GNRMC,130058.000,A,5318.34489,N,00607.79257,W,5.00,250.51,260725,,*00
1753534859358;N;$IIVWR,038,R,16.3,N,,,,*6E
1753534859424;N;$IIDPT,011.0,-1.2,*42
1753534859490;N;$IIGLL,5318.352,N,00607.764,W,130045,A,A*4E
1753534859556;N;$IIHDG,266,,,01,W*03
1753534859589;N;$IIMTW,+16.0,C*3F
1753534859655;N;$IIMWV,038,R,16.3,N,A*1C
1753534859694;N;$IIMWV,057,T,11.7,N,A*10
1753534859794;N;$GPRMB,A,0.15,L,3,4,5318.36,N,00609.00,W,0.7,270.6,4.7,V,A*48
1753534859795;N;$GPAPB,A,A,0.15,L,N,V,,282.4,T,4,270.6,T,270.6,T*48
1753534859821;N;$IIRMC,130045,A,5318.352,N,00607.764,W,04.7,243,260725,01,W,A*03
1753534859883;N;$IIVHW,,,266,M,06.1,N,,*61
1753534860237;N;!AIVDM,1,1,,B,B3fJoL00<?pw`?7`2lhRowuUoP06,0*32
1753534860237;N;$GPGSA,A,3,03,04,06,09,11,17,19,20,21,31,,,0.9,0.5,0.7*3C
1753534860237;N;$BDGSA,A,3,05,06,09,11,14,16,21,26,27,28,33,39,0.9,0.5,0.7*22
1753534860237;N;$GPGSV,4,1,16,01,,,36,03,29,087,46,04,62,077,46,06,69,276,43*45
1753534860237;N;$GPGSV,4,2,16,07,05,162,,09,66,188,45,11,33,304,40,17,15,207,40*76
1753534860237;N;$GPGSV,4,3,16,19,29,226,39,20,06,280,20,21,10,270,27,25,,,38*44
1753534860238;N;$GPGSV,4,4,16,31,15,034,46,34,,,39,36,,,42,40,,,39*4D
1753534860238;N;$BDGSV,4,1,16,05,08,109,43,06,25,043,38,09,31,058,44,11,14,170,35*66
1753534860255;N;$BDGSV,4,2,16,14,88,206,42,16,25,041,44,21,11,065,48,26,12,095,50*69
1753534860740;N;$BDGSV,4,3,16,27,21,317,37,28,51,275,42,33,59,244,44,36,,,31*5E
1753534860741;N;$BDGSV,4,4,16,39,18,030,42,42,61,067,47,43,32,190,39,45,13,041,48*64
1753534860742;N;$GNRMC,130059.000,A,5318.34460,N,00607.79476,W,4.83,260.64,260725,,*0C
1753534860743;N;$IIVLW,01609,N,001.2,N*5E
1753534860744;N;$IIVWR,038,R,16.0,N,,,,*6D
1753534860745;N;$IIDPT,011.0,-1.2,*42
1753534860745;N;$IIGLL,5318.352,N,00607.764,W,130045,A,A*4E
1753534860746;N;$IIHDG,267,,,01,W*02
1753534860746;N;$IIMTW,+16.0,C*3F
1753534860747;N;$IIMWV,038,R,16.0,N,A*1F
1753534860878;N;$IIMWV,057,T,12.1,N,A*15
1753534860879;N;$IIRMB,A,0.15,L,,4       ,,,,,000.70,270,04.7,V,A*78
1753534861016;N;!AIVDM,1,1,,A,402HVp1vUu=10wT=qtNRUbG00@0T,0*76
1753534861108;N;stop_pwm
1753534861520;N;start_pwm
1753534861522;N;$GNRMC,130100.000,A,5318.34438,N,00607.79693,W,4.70,261.03,260725,,*09
1753534861523;N;$IIRMC,130059,A,5318.344,N,00607.794,W,04.8,260,260725,01,W,A*08
1753534861524;N;$IIVHW,,,266,M,05.9,N,,*6A
1753534861558;N;$IIVLW,01609,N,001.2,N*5E
1753534861624;N;$IIVWR,039,R,16.3,N,,,,*6F
1753534861657;N;$IIDPT,010.8,-1.2,*4B
1753534861757;N;$IIGLL,5318.344,N,00607.794,W,130059,A,A*4B
1753534862153;N;$IIHDG,266,,,01,W*03
1753534862154;N;$IIMTW,+16.0,C*3F
1753534862154;N;$IIMWV,039,R,16.3,N,A*1D
1753534862156;N;$GNGGA,130101.000,5318.34410,N,00607.79910,W,1,25,0.5,4.5,M,55.8,M,,*53
1753534862206;N;$GNRMC,130101.000,A,5318.34410,N,00607.79910,W,4.80,255.79,260725,,*03
1753534862359;N;$IIMWV,057,T,12.2,N,A*16
1753534862458;N;$IIRMB,A,0.15,L,,4       ,,,,,000.70,270,04.7,V,A*78
1753534862538;N;!AIVDM,1,1,,A,B3fK6A@0?OpwGk7`0EVaOwQ5oP06,0*56
1753534862873;N;$IIRMC,130059,A,5318.344,N,00607.794,W,04.8,260,260725,01,W,A*08
1753534862875;N;$IIVHW,,,267,M,05.9,N,,*6B
1753534862875;N;$IIVLW,01609,N,001.2,N*5E
1753534862876;N;$IIVWR,038,R,16.2,N,,,,*6F
1753534862877;N;$IIDPT,010.8,-1.2,*4B
1753534863013;N;$IIGLL,5318.344,N,00607.794,W,130059,A,A*4B
1753534863122;N;$GNRMC,130102.000,A,5318.34376,N,00607.80123,W,4.77,253.40,260725,,*0D
1753534863358;N;$IIHDG,267,,,01,W*02
1753534863391;N;$IIMTW,+16.0,C*3F
1753534863569;N;$IIMWV,037,R,16.1,N,A*11
1753534863571;N;$IIMWV,056,T,12.0,N,A*15
1753534863623;N;$IIRMB,A,0.15,L,,4       ,,,,,000.70,270,04.7,V,A*78
1753534863756;N;$IIRMC,130059,A,5318.344,N,00607.794,W,04.8,260,260725,01,W,A*08
1753534863823;N;$IIVHW,,,267,M,05.9,N,,*6B
1753534863856;N;$IIVLW,01609,N,001.2,N*5E
1753534863912;N;$IIVWR,037,R,16.1,N,,,,*63
1753534864105;N;!AIVDM,1,1,,A,B3fKckh0:opwdDW`4IlJcwQQj5?i,0*29
1753534864125;N;$GNRMC,130103.000,A,5318.34345,N,00607.80333,W,4.64,257.11,260725,,*0D
1753534864192;N;!AIVDM,1,1,,B,H3q=>04U3?=5j3?C@7jqkk1`0040,0*65
1753534864358;N;$IIDPT,010.8,-1.2,*4B
1753534864513;N;$IIGLL,5318.344,N,00607.794,W,130059,A,A*4B
1753534864514;N;$IIHDG,267,,,01,W*02
1753534864524;N;$IIMTW,+16.0,C*3F
1753534864590;N;$IIMWV,036,R,15.6,N,A*14
1753534864750;N;$IIMWV,054,T,11.8,N,A*1C
1753534864757;N;$IIRMB,A,0.15,L,,4       ,,,,,000.70,270,04.7,V,A*78
1753534864830;N;$GPRMB,A,0.14,L,3,4,5318.36,N,00609.00,W,0.7,271.3,4.5,V,A*4F
1753534864831;N;$GPAPB,A,A,0.14,L,N,V,,282.4,T,4,271.3,T,271.3,T*49
1753534864926;N;$IIRMC,130059,A,5318.344,N,00607.794,W,04.8,260,260725,01,W,A*08
1753534865296;N;$GPGSA,A,3,03,04,06,09,11,17,19,20,21,31,,,0.9,0.5,0.7*3C
1753534865296;N;$BDGSA,A,3,05,06,09,11,14,16,21,26,27,28,33,39,0.9,0.5,0.7*22
1753534865296;N;$GPGSV,4,1,16,01,,,34,03,29,087,48,04,62,077,47,06,69,276,42*49
1753534865297;N;$GPGSV,4,2,16,07,05,162,,09,66,188,45,11,33,304,38,17,15,207,40*79
1753534865297;N;$GPGSV,4,3,16,19,29,226,38,20,06,280,18,21,10,270,27,25,,,35*43
1753534865297;N;$GPGSV,4,4,16,31,15,034,46,34,,,39,36,,,43,40,,,39*4C
1753534865298;N;$BDGSV,4,1,16,05,08,109,41,06,25,043,42,09,31,058,44,11,14,170,38*64
1753534865298;N;$BDGSV,4,2,16,14,88,205,42,16,25,041,44,21,11,065,44,26,12,095,48*6F
1753534865298;N;$BDGSV,4,3,16,27,21,317,34,28,51,275,40,33,59,244,41,36,,,27*5D
1753534865298;N;$BDGSV,4,4,16,39,18,030,47,42,61,067,48,43,32,190,40,45,13,041,49*61
1753534865299;N;$GNRMC,130104.000,A,5318.34317,N,00607.80537,W,4.48,257.29,260725,,*0A
1753534865425;N;$IIVHW,,,267,M,05.8,N,,*6A
1753534865426;N;$IIVLW,01609,N,001.2,N*5E
1753534865491;N;$IIVWR,038,R,15.6,N,,,,*68
1753534865524;N;$IIDPT,010.6,-1.2,*45
1753534866196;N;!AIVDM,1,1,,A,B3MC52P09GpwpE7`4RUp;wRQh@3H,0*7A
1753534866196;N;$ONWA,DEV,AIS,B+,KS20A-MK2,3.1,2.2.3-240925,550005559,1.2.0-20230722,*00
1753534866196;N;AutoSendDevIdMsg(): get_timer_second() = 300
1753534866198;N;$GNRMC,130105.000,A,5318.34290,N,00607.80742,W,4.47,257.81,260725,,*08
1753534866198;N;!AIVDO,1,1,,A,B8<Qc=h0;7pw1=W`1lNPj0R03P06,0*1B
1753534866199;N;!AIVDO,1,1,,B,H8<Qc=h8h4<e<PDE00000000000,2*6E
1753534866199;N;!AIVDO,1,1,,A,H8<Qc=lT?>G100059F6q00102210,0*15
1753534866200;N;$IIGLL,5318.344,N,00607.794,W,130059,A,A*4B
1753534866201;N;$IIHDG,267,,,01,W*02
1753534866202;N;$IIMTW,+16.0,C*3F
1753534866203;N;$IIMWV,038,R,15.6,N,A*1A
1753534866205;N;$IIMWV,053,T,11.4,N,A*17
1753534866206;N;$IIRMB,A,0.14,L,,4       ,,,,,000.70,271,04.5,V,A*7A
1753534866458;N;$IIRMC,130059,A,5318.344,N,00607.794,W,04.6,257,260725,01,W,A*02
1753534866491;N;$IIVHW,,,266,M,05.7,N,,*64
1753534866557;N;$IIVLW,01609,N,001.2,N*5E
1753534866623;N;$IIVWR,039,R,15.3,N,,,,*6C
1753534867013;N;$IIDPT,010.6,-1.2,*45
1753534867014;N;$IIGLL,5318.344,N,00607.794,W,130059,A,A*4B
1753534867015;N;$IIHDG,266,,,01,W*03
1753534867015;N;$IIMTW,+16.0,C*3F
1753534867016;N;$IIMWV,039,R,15.3,N,A*1E
1753534867138;N;$GNRMC,130106.000,A,5318.34255,N,00607.80940,W,4.40,250.71,260725,,*01
1753534867359;N;$IIMWV,057,T,11.4,N,A*13
1753534867491;N;$IIRMC,130059,A,5318.344,N,00607.794,W,04.6,257,260725,01,W,A*02
1753534867557;N;$IIVHW,,,267,M,05.7,N,,*65
1753534867623;N;$IIVLW,01609,N,001.2,N*5E
1753534867657;N;$IIVWR,038,R,15.1,N,,,,*6F
1753534867793;N;$IIDPT,010.6,-1.2,*45
1753534867823;N;$IIGLL,5318.344,N,00607.794,W,130059,A,A*4B
1753534867929;N;$IIHDG,267,,,01,W*02
1753534867930;N;$IIMTW,+16.0,C*3F
1753534868151;N;$GNRMC,130107.000,A,5318.34212,N,00607.81130,W,4.34,247.71,260725,,*08
1753534868358;N;$IIMWV,040,R,15.1,N,A*12
1753534868425;N;$IIMWV,056,T,11.1,N,A*17
1753534868558;N;$IIRMC,130059,A,5318.344,N,00607.794,W,04.6,257,260725,01,W,A*02
1753534868624;N;$IIVHW,,,268,M,05.7,N,,*6A
1753534868657;N;$IIVLW,01609,N,001.2,N*5E
1753534868723;N;$IIVWR,040,R,15.1,N,,,,*60
1753534868869;N;$IIDPT,010.6,-1.2,*45
1753534868870;N;$IIGLL,5318.344,N,00607.794,W,130059,A,A*4B
1753534868902;N;$IIHDG,268,,,01,W*0D
1753534869141;N;$GNRMC,130108.000,A,5318.34170,N,00607.81317,W,4.23,249.62,260725,,*0D
1753534869358;N;$IIMTW,+16.0,C*3F
1753534869391;N;$IIMWV,043,R,15.1,N,A*11
1753534869459;N;$IIMWV,058,T,11.2,N,A*1A
1753534869591;N;$IIRMC,130059,A,5318.344,N,00607.794,W,04.6,257,260725,01,W,A*02
1753534869657;N;$IIVHW,,,268,M,05.6,N,,*6B
1753534869690;N;$IIVLW,01609,N,001.2,N*5E
1753534869756;N;$IIVWR,043,R,15.1,N,,,,*63
1753534869866;N;$GPRMB,A,0.14,L,3,4,5318.36,N,00609.00,W,0.7,271.3,4.5,V,A*4F
1753534869868;N;$GPAPB,A,A,0.14,L,N,V,,282.4,T,4,271.3,T,271.3,T*49
1753534869909;N;$IIDPT,010.5,-1.2,*46
1753534869910;N;$IIGLL,5318.344,N,00607.794,W,130059,A,A*4B
1753534870142;N;$GPGSA,A,3,03,04,06,09,11,17,19,20,21,31,,,0.9,0.5,0.7*3C
1753534870159;N;$BDGSA,A,3,05,06,09,11,14,16,21,26,27,28,33,39,0.9,0.5,0.7*22
1753534870175;N;$GPGSV,4,1,16,01,,,32,03,29,087,45,04,62,077,47,06,69,276,42*42
1753534870204;N;$GPGSV,4,2,16,07,05,162,,09,66,188,46,11,33,304,39,17,15,207,38*74
1753534870828;N;$GPGSV,4,3,16,19,29,226,37,20,06,280,20,21,10,270,24,25,,,37*46
1753534870829;N;$GPGSV,4,4,16,31,15,034,45,34,,,39,36,,,43,40,,,40*41
1753534870829;N;$BDGSV,4,1,16,05,08,109,41,06,25,043,43,09,31,058,44,11,14,170,35*68
1753534870829;N;$BDGSV,4,2,16,14,88,205,41,16,25,041,45,21,11,065,44,26,12,095,45*60
1753534870829;N;$BDGSV,4,3,16,27,21,317,37,28,51,275,42,33,59,244,45,36,,,26*59
1753534870830;N;$BDGSV,4,4,16,39,18,030,43,42,61,067,48,43,32,190,39,45,13,041,50*63
1753534870831;N;$GNRMC,130109.000,A,5318.34140,N,00607.81510,W,4.19,258.06,260725,,*05
1753534870832;N;$IIHDG,269,,,01,W*0C
1753534870833;N;$IIMTW,+16.0,C*3F
1753534870833;N;$IIMWV,043,R,15.6,N,A*16
1753534870835;N;$IIMWV,063,T,11.4,N,A*14
1753534870835;N;$IIRMB,A,0.14,L,,4       ,,,,,000.70,271,04.5,V,A*7A
1753534870837;N;$IIRMC,130059,A,5318.344,N,00607.794,W,04.6,257,260725,01,W,A*02
1753534870837;N;$IIVHW,,,269,M,05.7,N,,*6B
1753534870965;N;$IIVLW,01609,N,001.2,N*5E
1753534870966;N;$IIVWR,043,R,15.6,N,,,,*64
1753534871148;N;$GNRMC,130110.000,A,5318.34120,N,00607.81706,W,4.14,262.07,260725,,*0B
1753534871359;N;$IIDPT,010.5,-1.2,*46
1753534871685;N;$IIGLL,5318.344,N,00607.794,W,130059,A,A*4B
1753534871686;N;$IIHDG,270,,,01,W*04
1753534871687;N;$IIMTW,+16.0,C*3F
1753534871687;N;$IIMWV,042,R,14.7,N,A*17
1753534871689;N;$IIMWV,062,T,11.9,N,A*18
1753534871789;N;$IIRMC,130059,A,5318.344,N,00607.794,W,04.6,257,260725,01,W,A*02
1753534871822;N;$IIVHW,,,270,M,05.8,N,,*6C
1753534871882;N;$IIVLW,01609,N,001.2,N*5E
1753534872141;N;$GNGGA,130111.000,5318.34110,N,00607.81904,W,1,25,0.5,4.7,M,55.8,M,,*57
1753534872289;N;$GNRMC,130111.000,A,5318.34110,N,00607.81904,W,4.17,267.75,260725,,*06
1753534872358;N;$IIVWR,044,R,14.2,N,,,,*66
1753534872424;N;$IIDPT,010.5,-1.2,*46
1753534872490;N;$IIGLL,5318.344,N,00607.794,W,130059,A,A*4B
1753534872677;N;$IIHDG,269,,,01,W*0C
1753534872678;N;$IIMTW,+16.0,C*3F
1753534872679;N;$IIMWV,044,R,14.2,N,A*14
1753534872689;N;$IIMWV,063,T,11.0,N,A*10
1753534872849;N;$IIRMC,130059,A,5318.344,N,00607.794,W,04.6,257,260725,01,W,A*02
1753534872883;N;$IIVHW,,,269,M,05.9,N,,*65
1753534873141;N;$GNRMC,130112.000,A,5318.34098,N,00607.82103,W,4.21,262.17,260725,,*0C
1753534873358;N;$IIVLW,01609,N,001.2,N*5E
1753534873424;N;$IIVWR,048,R,13.9,N,,,,*66
1753534873457;N;$IIDPT,010.5,-1.2,*46
1753534873556;N;$IIGLL,5318.344,N,00607.794,W,130059,A,A*4B
1753534873622;N;$IIHDG,267,,,01,W*02
1753534873655;N;$IIMTW,+16.0,C*3F
1753534873688;N;$IIMWV,048,R,13.9,N,A*14
1753534873766;N;$IIMWV,067,T,10.5,N,A*10
1753534873845;N;!AIVDM,1,1,,A,B3IJL1P0<OpwGR7`26qLcwVWkP06,0*6E
1753534873881;N;$IIRMC,130059,A,5318.344,N,00607.794,W,04.6,257,260725,01,W,A*02
1753534874149;N;$GNRMC,130113.000,A,5318.34066,N,00607.82298,W,4.27,248.64,260725,,*07
1753534874357;N;$IIVHW,,,266,M,05.9,N,,*6A
1753534874423;N;$IIVLW,01609,N,001.2,N*5E
1753534874489;N;$IIVWR,048,R,14.5,N,,,,*6D
1753534874522;N;$IIDPT,010.5,-1.2,*46
1753534874621;N;$IIGLL,5318.344,N,00607.794,W,130059,A,A*4B
1753534874654;N;$IIHDG,266,,,01,W*03
1753534874687;N;$IIMTW,+16.0,C*3F
1753534874754;N;$IIMWV,048,R,14.5,N,A*1F
1753534874830;N;$IIMWV,072,T,10.7,N,A*16
1753534874903;N;$GPRMB,A,0.14,L,3,4,5318.36,N,00609.00,W,0.7,271.3,3.9,V,A*44
1753534874904;N;$GPAPB,A,A,0.14,L,N,V,,282.4,T,4,271.3,T,271.3,T*49
1753534874913;N;!AIVDM,1,1,,B,B3fQ41P0;?pwsqW`6KQjmRBUoP06,0*67
1753534875149;N;$GPGSA,A,3,03,04,06,09,11,17,19,20,21,31,,,0.9,0.5,0.7*3C
1753534875384;N;$BDGSA,A,3,05,06,09,11,14,16,21,26,27,28,33,39,0.9,0.5,0.7*22
1753534875384;N;$GPGSV,4,1,16,01,,,36,03,29,087,46,04,62,077,46,06,69,276,43*45
1753534875384;N;$GPGSV,4,2,16,07,05,162,,09,66,188,45,11,33,304,40,17,15,207,38*79
1753534875385;N;$GPGSV,4,3,16,19,29,226,39,20,06,280,17,21,10,270,21,25,,,33*4D
1753534875385;N;$GPGSV,4,4,16,31,15,034,46,34,,,39,36,,,43,40,,,40*42
1753534875385;N;$BDGSV,4,1,16,05,08,109,41,06,25,043,40,09,31,058,44,11,14,170,34*6A
1753534875385;N;$BDGSV,4,2,16,14,88,204,42,16,25,041,45,21,11,066,45,26,12,095,48*6D
1753534875386;N;$BDGSV,4,3,16,27,21,317,41,28,51,275,42,33,59,244,43,36,,,27*5F
1753534875386;N;$BDGSV,4,4,16,39,18,030,44,42,61,067,48,43,32,190,40,45,13,041,48*63
1753534875387;N;$GNRMC,130114.000,A,5318.34030,N,00607.82498,W,4.46,255.19,260725,,*04
1753534875522;N;$IIRMC,130059,A,5318.344,N,00607.794,W,04.2,248,260725,01,W,A*08
1753534875523;N;$IIVHW,,,265,M,06.0,N,,*63
1753534875556;N;$IIVLW,01609,N,001.2,N*5E
1753534875622;N;$IIVWR,051,R,13.7,N,,,,*60
1753534876250;N;$GNRMC,130115.000,A,5318.33989,N,00607.82701,W,4.57,248.31,260725,,*0C
1753534876250;N;!AIVDO,1,1,,A,B8<Qc=h0;7pvwcW`1jfOMwW03P06,0*56
1753534876251;N;!AIVDO,1,1,,B,H8<Qc=h8h4<e<PDE00000000000,2*6E
1753534876251;N;!AIVDO,1,1,,A,H8<Qc=lT?>G100059F6q00102210,0*15
1753534876252;N;$IIDPT,010.5,-1.2,*46
1753534876253;N;$IIGLL,5318.344,N,00607.794,W,130059,A,A*4B
1753534876254;N;$IIHDG,265,,,01,W*00
1753534876254;N;$IIMTW,+16.0,C*3F
1753534876255;N;$IIMWV,051,R,13.7,N,A*12
1753534876402;N;$IIMWV,076,T,10.9,N,A*1C
1753534876458;N;$IIRMB,A,0.14,L,,4       ,,,,,000.70,271,03.9,V,A*71
1753534876623;N;$IIRMC,130059,A,5318.344,N,00607.794,W,04.2,248,260725,01,W,A*08
1753534876656;N;$IIVHW,,,264,M,06.0,N,,*62
1753534877069;N;$IIVLW,01609,N,001.2,N*5E
1753534877070;N;$IIVWR,049,R,14.4,N,,,,*6D
1753534877070;N;$IIDPT,010.5,-1.2,*46
1753534877071;N;$IIGLL,5318.344,N,00607.794,W,130059,A,A*4B
1753534877132;N;$GNRMC,130116.000,A,5318.33934,N,00607.82902,W,4.76,242.50,260725,,*0A
1753534877357;N;$IIHDG,265,,,01,W*00
